<?xml version="1.0" encoding="utf-8"?>
<ArrayOfLocation xmlns:xsi="http://www.w3.org/2001/XMLSchema-instance" xmlns:xsd="http://www.w3.org/2001/XMLSchema">
  <Location>
    <Id>1</Id>
    <Name>FELIX ROSARIO RIOS</Name>
    <Description>Escuela: 10017</Description>
    <Address>CARR 639 KM 4 HM 1 BO SABANA HOYOS  ARECIBO PR 00652</Address>
    <Telephone>787-881-5310</Telephone>
    <Latitude>18.401257</Latitude>
    <Longitude>-66.602742</Longitude>
    <Type>School</Type>
  </Location>
  <Location>
    <Id>2</Id>
    <Name>SU RAMON E BETANCES</Name>
    <Description>Escuela: 10058</Description>
    <Address>CARR 657 KM 1 HM 1 BO BAJADERO  ARECIBO PR 00616</Address>
    <Telephone>787-881-2650</Telephone>
    <Latitude>18.42661</Latitude>
    <Longitude>-66.6838</Longitude>
    <Type>School</Type>
  </Location>
  <Location>
    <Id>3</Id>
    <Name>DR FRANCISCO SUSONI</Name>
    <Description>Escuela: 10082</Description>
    <Address>ARECIBO GARDENS CALLE 5  ARECIBO PR 00612</Address>
    <Telephone>787-878-1734</Telephone>
    <Latitude>18.4622</Latitude>
    <Longitude>-66.72329</Longitude>
    <Type>School</Type>
  </Location>
  <Location>
    <Id>4</Id>
    <Name>LOS CANOS</Name>
    <Description>Escuela: 10108</Description>
    <Address>CARR 651 KM 1 HM 2 SECT LOS CANOS BO TANAMA  ARECIBO PR 00612</Address>
    <Telephone>787-879-1558</Telephone>
    <Latitude>18.424653</Latitude>
    <Longitude>-66.712748</Longitude>
    <Type>School</Type>
  </Location>
  <Location>
    <Id>5</Id>
    <Name>JUSTINIANO TORRES</Name>
    <Description>Escuela: 10124</Description>
    <Address>CARR 639 KM 2 HM 7 SECT CANDELARIA BO SABANA HOYOS  ARECIBO PR 00652</Address>
    <Telephone>787-881-6985</Telephone>
    <Latitude>18.428474</Latitude>
    <Longitude>-66.613538</Longitude>
    <Type>School</Type>
  </Location>
  <Location>
    <Id>6</Id>
    <Name>COTTO (ANEXO)</Name>
    <Description>Escuela: 10173</Description>
    <Address>AVE CONSTITUCION BO COTTO  ARECIBO PR 00612</Address>
    <Telephone>787-878-8160</Telephone>
    <Latitude>18.462983</Latitude>
    <Longitude>-66.735957</Longitude>
    <Type>School</Type>
  </Location>
  <Location>
    <Id>7</Id>
    <Name>DOLORES GOMEZ  DE ROMAN</Name>
    <Description>Escuela: 10207</Description>
    <Address>AVE SAN LUIS CARR 129 HM 507 BO PUEBLO  ARECIBO PR 00612</Address>
    <Telephone>787-878-2425</Telephone>
    <Latitude>18.471022</Latitude>
    <Longitude>-66.727499</Longitude>
    <Type>School</Type>
  </Location>
  <Location>
    <Id>8</Id>
    <Name>DOMINGO RUIZ</Name>
    <Description>Escuela: 10215</Description>
    <Address>CALLE 3 BO DOMINGO RUIZ  ARECIBO PR 00612</Address>
    <Telephone>787-816-1919</Telephone>
    <Latitude>18.439098</Latitude>
    <Longitude>-66.682463</Longitude>
    <Type>School</Type>
  </Location>
  <Location>
    <Id>9</Id>
    <Name>EUGENIO MARIA DE HOSTOS</Name>
    <Description>Escuela: 10272</Description>
    <Address>CARR 682 KM 7 HM 5 BO GARROCHALES  ARECIBO PR 00612</Address>
    <Telephone>787-881-3540</Telephone>
    <Latitude>0</Latitude>
    <Longitude>0</Longitude>
    <Type>School</Type>
  </Location>
  <Location>
    <Id>10</Id>
    <Name>JULIO SEIJO</Name>
    <Description>Escuela: 10314</Description>
    <Address>CARR 129 KM 28 HM 3 BO HATO ARRIBA  ARECIBO PR 00612</Address>
    <Telephone>787-878-2062</Telephone>
    <Latitude>18.4447</Latitude>
    <Longitude>-66.75471</Longitude>
    <Type>School</Type>
  </Location>
  <Location>
    <Id>11</Id>
    <Name>SU ENRIQUE DE JESUS BORRAS</Name>
    <Description>Escuela: 10322</Description>
    <Address>CARR 10 KM 78 HM 9 BO HATO VIEJO  ARECIBO PR 00612</Address>
    <Telephone>787-878-7699</Telephone>
    <Latitude>18.408425</Latitude>
    <Longitude>-66.698906</Longitude>
    <Type>School</Type>
  </Location>
  <Location>
    <Id>12</Id>
    <Name>CARMEN M ABREU</Name>
    <Description>Escuela: 10330</Description>
    <Address>ABRA SAN FRANCISCO CALLE MARTE  ARECIBO PR 00612</Address>
    <Telephone>787-878-8367</Telephone>
    <Latitude>18.445377</Latitude>
    <Longitude>-66.725072</Longitude>
    <Type>School</Type>
  </Location>
  <Location>
    <Id>13</Id>
    <Name>JOSE GUALBERTO PADILLA</Name>
    <Description>Escuela: 10348</Description>
    <Address>AVE CONSTITUCION BO COTTO  ARECIBO PR 00612</Address>
    <Telephone>787-878-2818</Telephone>
    <Latitude>18.462653</Latitude>
    <Longitude>-66.730286</Longitude>
    <Type>School</Type>
  </Location>
  <Location>
    <Id>14</Id>
    <Name>JOHN W HARRIS</Name>
    <Description>Escuela: 10355</Description>
    <Address>AVE CONSTITUCION BO COTTO  ARECIBO PR 00612</Address>
    <Telephone>787-878-1514</Telephone>
    <Latitude>18.463045</Latitude>
    <Longitude>-66.731285</Longitude>
    <Type>School</Type>
  </Location>
  <Location>
    <Id>15</Id>
    <Name>THOMAS JEFFERSON</Name>
    <Description>Escuela: 10363</Description>
    <Address>AVE JOSE DE DIEGO BO PUEBLO  ARECIBO PR 00612</Address>
    <Telephone>787-878-3332</Telephone>
    <Latitude>0</Latitude>
    <Longitude>0</Longitude>
    <Type>School</Type>
  </Location>
  <Location>
    <Id>16</Id>
    <Name>LUIS FELIPE PEREZ</Name>
    <Description>Escuela: 10405</Description>
    <Address>CARR 681 SECT PIQUINAS BO ISLOTE  BARCELONETA PR 00612</Address>
    <Telephone>787-880-7488</Telephone>
    <Latitude>0</Latitude>
    <Longitude>0</Longitude>
    <Type>School</Type>
  </Location>
  <Location>
    <Id>17</Id>
    <Name>DR CAYETANO COLL Y TOSTE</Name>
    <Description>Escuela: 10439</Description>
    <Address>CARR 638 HM 5 BO MIRAFLORES  FLORIDA PR 00612</Address>
    <Telephone>787-881-6002</Telephone>
    <Latitude>0</Latitude>
    <Longitude>0</Longitude>
    <Type>School</Type>
  </Location>
  <Location>
    <Id>18</Id>
    <Name>SU RIO ARRIBA</Name>
    <Description>Escuela: 10488</Description>
    <Address>CARR 10 KM 70 HM 1 BO RIO ARRIBA  ARECIBO PR 00612</Address>
    <Telephone>787-880-6003</Telephone>
    <Latitude>18.346565</Latitude>
    <Longitude>-66.674562</Longitude>
    <Type>School</Type>
  </Location>
  <Location>
    <Id>19</Id>
    <Name>SU MANUEL RUIZ GANDIA</Name>
    <Description>Escuela: 10512</Description>
    <Address>CARR 635 KM 2 BO DOMINGUITO  ARECIBO PR 00612</Address>
    <Telephone>787-879-0851</Telephone>
    <Latitude>18.422063</Latitude>
    <Longitude>-66.74902</Longitude>
    <Type>School</Type>
  </Location>
  <Location>
    <Id>20</Id>
    <Name>SU DIEGO BRAVO</Name>
    <Description>Escuela: 10520</Description>
    <Address>CARR 635 INT 626 BO ESPERANZA  ARECIBO PR 00612</Address>
    <Telephone>787-880-2444</Telephone>
    <Latitude>18.381248</Latitude>
    <Longitude>-66.746317</Longitude>
    <Type>School</Type>
  </Location>
  <Location>
    <Id>21</Id>
    <Name>SU FEDERICO DEGETAU</Name>
    <Description>Escuela: 10546</Description>
    <Address>CARR 2 KM 68 BO SANTANA  ARECIBO PR 00612</Address>
    <Telephone>787-881-1524</Telephone>
    <Latitude>0</Latitude>
    <Longitude>0</Longitude>
    <Type>School</Type>
  </Location>
  <Location>
    <Id>22</Id>
    <Name>VICTOR ROJAS I</Name>
    <Description>Escuela: 10611</Description>
    <Address>CALLE C BDA VICTOR ROJAS I  ARECIBO PR 00612</Address>
    <Telephone>787-880-3551</Telephone>
    <Latitude>18.458432</Latitude>
    <Longitude>-66.7394</Longitude>
    <Type>School</Type>
  </Location>
  <Location>
    <Id>23</Id>
    <Name>VICTOR ROJAS II</Name>
    <Description>Escuela: 10629</Description>
    <Address>CALLE A HM 2 BDA VICTOR RODRIGUEZ  ARECIBO PR 00612</Address>
    <Telephone>787-878-5969</Telephone>
    <Latitude>18.462421</Latitude>
    <Longitude>-66.746078</Longitude>
    <Type>School</Type>
  </Location>
  <Location>
    <Id>24</Id>
    <Name>ANGELICA GOMEZ DE BETANCOURT</Name>
    <Description>Escuela: 10637</Description>
    <Address>CARR 681 HM 3 BO ISLOTE  ARECIBO PR 00612</Address>
    <Telephone>787-878-1675</Telephone>
    <Latitude>18.479017</Latitude>
    <Longitude>-66.693672</Longitude>
    <Type>School</Type>
  </Location>
  <Location>
    <Id>25</Id>
    <Name>EASTON</Name>
    <Description>Escuela: 10686</Description>
    <Address>PARCELAS TIBURON 2 CALLE 3  ARECIBO PR 00617</Address>
    <Telephone>787-846-4379</Telephone>
    <Latitude>18.435356</Latitude>
    <Longitude>-66.580042</Longitude>
    <Type>School</Type>
  </Location>
  <Location>
    <Id>26</Id>
    <Name>FERNANDO SURIA CHAVEZ</Name>
    <Description>Escuela: 10702</Description>
    <Address>CALLE GEORGETTI BO PUEBLO  BARCELONETA PR 00617</Address>
    <Telephone>787-846-6750</Telephone>
    <Latitude>0</Latitude>
    <Longitude>0</Longitude>
    <Type>School</Type>
  </Location>
  <Location>
    <Id>27</Id>
    <Name>JUANITA RAMIREZ GONZALEZ</Name>
    <Description>Escuela: 10710</Description>
    <Address>CARR 642 KM 10 HM 3 COMUNIDAD ARROYO  FLORIDA PR 00650</Address>
    <Telephone>787-822-2190</Telephone>
    <Latitude>18.36364</Latitude>
    <Longitude>-66.55081</Longitude>
    <Type>School</Type>
  </Location>
  <Location>
    <Id>28</Id>
    <Name>JOSE CORDERO ROSARIO</Name>
    <Description>Escuela: 10728</Description>
    <Address>CARR 2 KM 56 HM 6 BO PALENQUE  BARCELONETA PR 00617</Address>
    <Telephone>787-846-5474</Telephone>
    <Latitude>18.43553</Latitude>
    <Longitude>-66.546436</Longitude>
    <Type>School</Type>
  </Location>
  <Location>
    <Id>29</Id>
    <Name>PRIMITIVO MARCHAND</Name>
    <Description>Escuela: 10736</Description>
    <Address>CARR 682 KM 3 HM 4 BO GARROCHALES  BARCELONETA PR 00617</Address>
    <Telephone>787-846-6509</Telephone>
    <Latitude>18.455118</Latitude>
    <Longitude>-66.570925</Longitude>
    <Type>School</Type>
  </Location>
  <Location>
    <Id>30</Id>
    <Name>IMBERY</Name>
    <Description>Escuela: 10744</Description>
    <Address>PARCELAS IMBERY CALLE 6 ESQ 5  BARCELONETA PR 00617</Address>
    <Telephone>787-846-0361</Telephone>
    <Latitude>18.437532</Latitude>
    <Longitude>-66.557642</Longitude>
    <Type>School</Type>
  </Location>
  <Location>
    <Id>31</Id>
    <Name>ADOLFO EGUEN</Name>
    <Description>Escuela: 10769</Description>
    <Address>CARR 641 KM 1 HM 1 BO PAJONAL  FLORIDA PR 00650</Address>
    <Telephone>787-822-2904</Telephone>
    <Latitude>18.386278</Latitude>
    <Longitude>-66.557939</Longitude>
    <Type>School</Type>
  </Location>
  <Location>
    <Id>32</Id>
    <Name>AGUSTIN BALSEIRO</Name>
    <Description>Escuela: 10785</Description>
    <Address>CARR 684 KM 15 BO PALMAS ALTAS  BARCELONETA PR 00617</Address>
    <Telephone>787-846-4742</Telephone>
    <Latitude>18.48392</Latitude>
    <Longitude>-66.569665</Longitude>
    <Type>School</Type>
  </Location>
  <Location>
    <Id>33</Id>
    <Name>JUAN PONCE DE LEON II</Name>
    <Description>Escuela: 10827</Description>
    <Address>CARR 631 KM 5 BO CEIBA  FLORIDA PR 00650</Address>
    <Telephone>787-822-2050</Telephone>
    <Latitude>18.358253</Latitude>
    <Longitude>-66.567949</Longitude>
    <Type>School</Type>
  </Location>
  <Location>
    <Id>34</Id>
    <Name>DR FRANCISCO VAZQUEZ</Name>
    <Description>Escuela: 10835</Description>
    <Address>CARR 140 KM 3 HM 3 BO MAGUEYES  FLORIDA PR 00617</Address>
    <Telephone>787-846-3171</Telephone>
    <Latitude>18.416661</Latitude>
    <Longitude>-66.569692</Longitude>
    <Type>School</Type>
  </Location>
  <Location>
    <Id>35</Id>
    <Name>JOSE M HERNANDEZ</Name>
    <Description>Escuela: 10850</Description>
    <Address>CARR 486 BO ABRA HONDA  CAMUY PR 00627</Address>
    <Telephone>787-898-7373</Telephone>
    <Latitude>18.433312</Latitude>
    <Longitude>-66.852533</Longitude>
    <Type>School</Type>
  </Location>
  <Location>
    <Id>36</Id>
    <Name>SU JOAQUIN VAZQUEZ CRUZ</Name>
    <Description>Escuela: 10892</Description>
    <Address>CARR 456 KM 4 HM 9 BO CIBAO  CAMUY PR 00669</Address>
    <Telephone>787-820-2909</Telephone>
    <Latitude>18.375689</Latitude>
    <Longitude>-66.87954</Longitude>
    <Type>School</Type>
  </Location>
  <Location>
    <Id>37</Id>
    <Name>PABLO AVILA GONZALEZ</Name>
    <Description>Escuela: 10926</Description>
    <Address>52 CALLE AMADOR  CAMUY PR 00627</Address>
    <Telephone>787-898-3770</Telephone>
    <Latitude>18.487243</Latitude>
    <Longitude>-66.84618</Longitude>
    <Type>School</Type>
  </Location>
  <Location>
    <Id>38</Id>
    <Name>JULIAN BLANCO</Name>
    <Description>Escuela: 10942</Description>
    <Address>INT. 456 CARR119 KM 4 BO PUERTOS  CAMUY PR 00627</Address>
    <Telephone>787-820-4277</Telephone>
    <Latitude>18.396826</Latitude>
    <Longitude>-66.898173</Longitude>
    <Type>School</Type>
  </Location>
  <Location>
    <Id>39</Id>
    <Name>LAURENTINO ESTRELLA COLON</Name>
    <Description>Escuela: 10959</Description>
    <Address>AVE MUNOZ RIVERA  CAMUY PR 00627</Address>
    <Telephone>787-898-3745</Telephone>
    <Latitude>18.485415</Latitude>
    <Longitude>-66.847526</Longitude>
    <Type>School</Type>
  </Location>
  <Location>
    <Id>40</Id>
    <Name>RALPH W EMERSON</Name>
    <Description>Escuela: 10967</Description>
    <Address>CARR 2 KM 92.5 HM 3 BO MEMBRILLO  CAMUY PR 00627</Address>
    <Telephone>787-898-2037</Telephone>
    <Latitude>18.472084</Latitude>
    <Longitude>-66.873297</Longitude>
    <Type>School</Type>
  </Location>
  <Location>
    <Id>41</Id>
    <Name>ANTONIO REYES</Name>
    <Description>Escuela: 11023</Description>
    <Address>CARR 486 KM 2 HM 6 BO ZANJA  CAMUY PR 00627</Address>
    <Telephone>787-820-1472</Telephone>
    <Latitude>18.451431</Latitude>
    <Longitude>-66.854063</Longitude>
    <Type>School</Type>
  </Location>
  <Location>
    <Id>42</Id>
    <Name>SU SANTIAGO R PALMER</Name>
    <Description>Escuela: 11031</Description>
    <Address>CARR 129 KM 1 HM 6 BO QUEBRADA  CAMUY PR 00627</Address>
    <Telephone>787-898-7976</Telephone>
    <Latitude>18.367734</Latitude>
    <Longitude>-66.833568</Longitude>
    <Type>School</Type>
  </Location>
  <Location>
    <Id>43</Id>
    <Name>ROMAN BALDORIOTY DE CASTRO</Name>
    <Description>Escuela: 11072</Description>
    <Address>CARR 119 KM 13 HM 1 BO PIEDRA GORDA  CAMUY PR 00627</Address>
    <Telephone>787-898-3760</Telephone>
    <Latitude>18.421959</Latitude>
    <Longitude>-66.888174</Longitude>
    <Type>School</Type>
  </Location>
  <Location>
    <Id>44</Id>
    <Name>PEDRO AMADOR</Name>
    <Description>Escuela: 11080</Description>
    <Address>CARR 485 KM 2 HM 2 SECT BAJURA BO YAGUADA  CAMUY PR 00627</Address>
    <Telephone>787-898-1337</Telephone>
    <Latitude>18.483585</Latitude>
    <Longitude>-66.884988</Longitude>
    <Type>School</Type>
  </Location>
  <Location>
    <Id>45</Id>
    <Name>REPUBLICA DEL ECUADOR</Name>
    <Description>Escuela: 11155</Description>
    <Address>CARR 149 KM 25.5 BO CIALITOS PORTON  CIALES PR 00638</Address>
    <Telephone>787-871-3306</Telephone>
    <Latitude>18.276272</Latitude>
    <Longitude>-66.510482</Longitude>
    <Type>School</Type>
  </Location>
  <Location>
    <Id>46</Id>
    <Name>CRISTOBAL VICENS</Name>
    <Description>Escuela: 11163</Description>
    <Address>CARR 146 KM 26 BO CORDILLERA  CIALES PR 00638</Address>
    <Telephone>787-871-1002</Telephone>
    <Latitude>18.315508</Latitude>
    <Longitude>-66.505701</Longitude>
    <Type>School</Type>
  </Location>
  <Location>
    <Id>47</Id>
    <Name>ERNESTO VALDERAS</Name>
    <Description>Escuela: 11171</Description>
    <Address>CALLE EXTENSION CORCHADO BO PUEBLO  CIALES PR 00638</Address>
    <Telephone>787-871-3165</Telephone>
    <Latitude>18.338746</Latitude>
    <Longitude>-66.467429</Longitude>
    <Type>School</Type>
  </Location>
  <Location>
    <Id>48</Id>
    <Name>JUAN RIOS SERPA</Name>
    <Description>Escuela: 11189</Description>
    <Address>CALLE CORCHADO EXTENSION  CIALES PR 00638</Address>
    <Telephone>787-871-3225</Telephone>
    <Latitude>0</Latitude>
    <Longitude>0</Longitude>
    <Type>School</Type>
  </Location>
  <Location>
    <Id>49</Id>
    <Name>FRANCISCO COIRA</Name>
    <Description>Escuela: 11197</Description>
    <Address>CALLE HERNANDEZ USERA  CIALES PR 00638</Address>
    <Telephone>787-871-2575</Telephone>
    <Latitude>18.3344</Latitude>
    <Longitude>-66.467004</Longitude>
    <Type>School</Type>
  </Location>
  <Location>
    <Id>50</Id>
    <Name>HATO VIEJO CUMBRE</Name>
    <Description>Escuela: 11239</Description>
    <Address>CARR 632 KM 2 BO HATO VIEJO  CIALES PR 00638</Address>
    <Telephone>787-871-3616</Telephone>
    <Latitude>18.360558</Latitude>
    <Longitude>-66.492717</Longitude>
    <Type>School</Type>
  </Location>
  <Location>
    <Id>51</Id>
    <Name>CONCEPCION PEREZ HERNANDEZ</Name>
    <Description>Escuela: 11262</Description>
    <Address>CARR 149 KM 5 HM 5 RAMAL SANTA CLARA BO JAGUAR  CIALES PR 00638</Address>
    <Telephone>787-871-6090</Telephone>
    <Latitude>18.306365</Latitude>
    <Longitude>-66.477399</Longitude>
    <Type>School</Type>
  </Location>
  <Location>
    <Id>52</Id>
    <Name>PESA PARCELAS</Name>
    <Description>Escuela: 11270</Description>
    <Address>CARR 149 KM 19 HM 1 BO PESAS SECTOR TORTUGUERO  CIALES PR 00638</Address>
    <Telephone>787-871-0822</Telephone>
    <Latitude>18.30333</Latitude>
    <Longitude>-66.48524</Longitude>
    <Type>School</Type>
  </Location>
  <Location>
    <Id>53</Id>
    <Name>SU TORIBIO RIVERA</Name>
    <Description>Escuela: 11312</Description>
    <Address>CARR 146 KM 14 HM 6 SEC SABANA BO FRONTON  CIALES PR 00650</Address>
    <Telephone>787-871-4738</Telephone>
    <Latitude>18.30355</Latitude>
    <Longitude>-66.55496</Longitude>
    <Type>School</Type>
  </Location>
  <Location>
    <Id>54</Id>
    <Name>SU FRANCISCO SERRANO</Name>
    <Description>Escuela: 11320</Description>
    <Address>CARR 149 KM 20 HM 9 BO PESA  CIALES PR 00638</Address>
    <Telephone>787-871-3385</Telephone>
    <Latitude>18.29582</Latitude>
    <Longitude>-66.49291</Longitude>
    <Type>School</Type>
  </Location>
  <Location>
    <Id>55</Id>
    <Name>MANUEL CORCHADO</Name>
    <Description>Escuela: 11353</Description>
    <Address>BO AIBONITO KM 4.7  HATILLO PR 00659</Address>
    <Telephone>787-898-7240</Telephone>
    <Latitude>18.341602</Latitude>
    <Longitude>-66.788595</Longitude>
    <Type>School</Type>
  </Location>
  <Location>
    <Id>56</Id>
    <Name>LUIS MELENDEZ RODRIGUEZ</Name>
    <Description>Escuela: 11387</Description>
    <Address>CARR 130 KM 11 HM 1 BO CAMPO ALEGRE  HATILLO PR 00612</Address>
    <Telephone>787-898-9497</Telephone>
    <Latitude>18.406699</Latitude>
    <Longitude>-66.781244</Longitude>
    <Type>School</Type>
  </Location>
  <Location>
    <Id>57</Id>
    <Name>LUIS MUNOZ RIVERA</Name>
    <Description>Escuela: 11395</Description>
    <Address>CARR 130 KM 3 HM 5 BO CAPAEZ  HATILLO PR 00659</Address>
    <Telephone>787-898-1830</Telephone>
    <Latitude>18.459554</Latitude>
    <Longitude>-66.808844</Longitude>
    <Type>School</Type>
  </Location>
  <Location>
    <Id>58</Id>
    <Name>EUGENIO MARIA DE HOSTOS</Name>
    <Description>Escuela: 11403</Description>
    <Address>CARR 2 KM 84 HM 5 CALLE B BO CARRIZALES  HATILLO PR 00659</Address>
    <Telephone>787-898-1586</Telephone>
    <Latitude>18.47679</Latitude>
    <Longitude>-66.79062</Longitude>
    <Type>School</Type>
  </Location>
  <Location>
    <Id>59</Id>
    <Name>CARMEN NOELIA PERAZA TOLEDO</Name>
    <Description>Escuela: 11411</Description>
    <Address>CARR 492 KM 3 HM 1 BO CORCOVADOS  HATILLO PR 00659</Address>
    <Telephone>787-898-0001</Telephone>
    <Latitude>18.456675</Latitude>
    <Longitude>-66.775914</Longitude>
    <Type>School</Type>
  </Location>
  <Location>
    <Id>60</Id>
    <Name>ADRIAN MARTINEZ GANDIA</Name>
    <Description>Escuela: 11437</Description>
    <Address>CALLE MANUEL LA COMBA SECT MARINA  HATILLO PR 00659</Address>
    <Telephone>787-898-3440</Telephone>
    <Latitude>18.489503</Latitude>
    <Longitude>-66.823836</Longitude>
    <Type>School</Type>
  </Location>
  <Location>
    <Id>61</Id>
    <Name>JULIET A CASEY</Name>
    <Description>Escuela: 11445</Description>
    <Address>CALLE MANUEL H LA COMBA FINAL  HATILLO PR 00659</Address>
    <Telephone>787-898-4170</Telephone>
    <Latitude>18.488819</Latitude>
    <Longitude>-66.823012</Longitude>
    <Type>School</Type>
  </Location>
  <Location>
    <Id>62</Id>
    <Name>ROSA E MOLINARI</Name>
    <Description>Escuela: 11460</Description>
    <Address>CARR 130 KM 1 HATILLO PUEBLO  HATILLO PR 00659</Address>
    <Telephone>787-898-4000</Telephone>
    <Latitude>18.483093</Latitude>
    <Longitude>-66.8217</Longitude>
    <Type>School</Type>
  </Location>
  <Location>
    <Id>63</Id>
    <Name>JOAQUIN RODRIGUEZ RUIZ</Name>
    <Description>Escuela: 11478</Description>
    <Address>CARR 130 RAMAL 491 BO NARANJITO  HATILLO PR 00659</Address>
    <Telephone>787-898-9272</Telephone>
    <Latitude>18.454513</Latitude>
    <Longitude>-66.778123</Longitude>
    <Type>School</Type>
  </Location>
  <Location>
    <Id>64</Id>
    <Name>SU RAFAEL ZAMOT CRUZ</Name>
    <Description>Escuela: 11494</Description>
    <Address>CARR 134 KM 27 HM 21 BO BAYANEY  HATILLO PR 00659</Address>
    <Telephone>787-820-0841</Telephone>
    <Latitude>18.364893</Latitude>
    <Longitude>-66.800525</Longitude>
    <Type>School</Type>
  </Location>
  <Location>
    <Id>65</Id>
    <Name>TIMOTEO DELGADO</Name>
    <Description>Escuela: 11502</Description>
    <Address>CARR 130 KM 8 HM 3 BO PAJUIL  HATILLO PR 00659</Address>
    <Telephone>787-898-9566</Telephone>
    <Latitude>0</Latitude>
    <Longitude>0</Longitude>
    <Type>School</Type>
  </Location>
  <Location>
    <Id>66</Id>
    <Name>LORENZO COBALLES GANDIA</Name>
    <Description>Escuela: 11528</Description>
    <Address>CARR 130 KM. 0.1 SECT. LOS ALVAREZ  HATILLO PR 00659</Address>
    <Telephone>787-898-4300</Telephone>
    <Latitude>18.481553</Latitude>
    <Longitude>-66.820679</Longitude>
    <Type>School</Type>
  </Location>
  <Location>
    <Id>67</Id>
    <Name>PILETAS ARCE</Name>
    <Description>Escuela: 11536</Description>
    <Address>CARR 129 RAMAL 4453 KM 2 HM 8  LARES PR 00669</Address>
    <Telephone>787-897-5065</Telephone>
    <Latitude>18.332095</Latitude>
    <Longitude>-66.867207</Longitude>
    <Type>School</Type>
  </Location>
  <Location>
    <Id>68</Id>
    <Name>GABRIELA MISTRAL</Name>
    <Description>Escuela: 11593</Description>
    <Address>CARR 135 KM 65.6  LARES PR 00669</Address>
    <Telephone>787-829-1198</Telephone>
    <Latitude>18.178485</Latitude>
    <Longitude>-66.830363</Longitude>
    <Type>School</Type>
  </Location>
  <Location>
    <Id>69</Id>
    <Name>DOMINGO APONTE COLLAZO</Name>
    <Description>Escuela: 11643</Description>
    <Address>CARR 111 CALLE RAMON DE JESUS SIERRA  LARES PR 00669</Address>
    <Telephone>787-897-1570</Telephone>
    <Latitude>18.296663</Latitude>
    <Longitude>-66.879771</Longitude>
    <Type>School</Type>
  </Location>
  <Location>
    <Id>70</Id>
    <Name>CONSUELO GONZALEZ</Name>
    <Description>Escuela: 11650</Description>
    <Address>AVE. LOS PATRIOTAS RES. DR. SEIN  LARES PR 00669</Address>
    <Telephone>787-897-2210</Telephone>
    <Latitude>18.327597</Latitude>
    <Longitude>-66.883895</Longitude>
    <Type>School</Type>
  </Location>
  <Location>
    <Id>71</Id>
    <Name>GONZALEZ BELLO</Name>
    <Description>Escuela: 11718</Description>
    <Address>CARR 129 RAMAL 4453BO. CALLEJONES  LARES PR 00669</Address>
    <Telephone>787-897-4411</Telephone>
    <Latitude>18.3498</Latitude>
    <Longitude>-66.86502</Longitude>
    <Type>School</Type>
  </Location>
  <Location>
    <Id>72</Id>
    <Name>LUIS FELIPE RODRIGUEZ GARCIA</Name>
    <Description>Escuela: 11756</Description>
    <Address>CARR #483 KM 13 HM 1 BO PIEDRA GORDA  CAMUY PR 00627</Address>
    <Telephone>787-898-0990</Telephone>
    <Latitude>18.432544</Latitude>
    <Longitude>-66.891578</Longitude>
    <Type>School</Type>
  </Location>
  <Location>
    <Id>73</Id>
    <Name>SU JUAN C PAGAN</Name>
    <Description>Escuela: 11767</Description>
    <Address>CARR 129 INT. 454  LARES PR 00669</Address>
    <Telephone>787-897-4244</Telephone>
    <Latitude>18.331443</Latitude>
    <Longitude>-66.849816</Longitude>
    <Type>School</Type>
  </Location>
  <Location>
    <Id>74</Id>
    <Name>JULIO LEBRON SOTO</Name>
    <Description>Escuela: 11908</Description>
    <Address>CARR 135 KM 60 BO CASTANER  LARES PR 00669</Address>
    <Telephone>787-829-3916</Telephone>
    <Latitude>18.181592</Latitude>
    <Longitude>-66.833789</Longitude>
    <Type>School</Type>
  </Location>
  <Location>
    <Id>75</Id>
    <Name>RAFAEL MARTINEZ NADAL</Name>
    <Description>Escuela: 11916</Description>
    <Address>6 CALLE ECHERAY  LARES PR 00669</Address>
    <Telephone>787-897-1550</Telephone>
    <Latitude>18.26959</Latitude>
    <Longitude>-66.85281</Longitude>
    <Type>School</Type>
  </Location>
  <Location>
    <Id>76</Id>
    <Name>SU BARTOLO</Name>
    <Description>Escuela: 11924</Description>
    <Address>CARR 128 KM 37.9  LARES PR 00669</Address>
    <Telephone>787-897-3545</Telephone>
    <Latitude>18.189164</Latitude>
    <Longitude>-66.849625</Longitude>
    <Type>School</Type>
  </Location>
  <Location>
    <Id>77</Id>
    <Name>SU ANGELICA DELGADO</Name>
    <Description>Escuela: 11932</Description>
    <Address>  LARES PR 00669</Address>
    <Telephone>787-897-1905</Telephone>
    <Latitude>18.29188</Latitude>
    <Longitude>-66.88292</Longitude>
    <Type>School</Type>
  </Location>
  <Location>
    <Id>78</Id>
    <Name>SU JOSEFINA LINARES</Name>
    <Description>Escuela: 11940</Description>
    <Address>CARR 111 KM 12.5 BO. LARES  LARES PR 00669</Address>
    <Telephone>787-897-1865</Telephone>
    <Latitude>18.29084</Latitude>
    <Longitude>-66.838155</Longitude>
    <Type>School</Type>
  </Location>
  <Location>
    <Id>79</Id>
    <Name>IGNACIO DICUPE GONZALEZ</Name>
    <Description>Escuela: 11957</Description>
    <Address>CARR 453 KM 5 HM 5 BO PILETAS  LARES PR 00669</Address>
    <Telephone>787-897-6949</Telephone>
    <Latitude>18.396826</Latitude>
    <Longitude>-66.898173</Longitude>
    <Type>School</Type>
  </Location>
  <Location>
    <Id>80</Id>
    <Name>GEORGE WASHINGTON</Name>
    <Description>Escuela: 12005</Description>
    <Address>CARR 111 KM 33 HM 9 BO PUEBLO SECT BURUQUILLO  LARES PR 00669</Address>
    <Telephone>787-897-4095</Telephone>
    <Latitude>18.30044</Latitude>
    <Longitude>-66.89908</Longitude>
    <Type>School</Type>
  </Location>
  <Location>
    <Id>81</Id>
    <Name>JOSE MELENDEZ AYALA I</Name>
    <Description>Escuela: 12021</Description>
    <Address>CARR 664 KM 0 HM 1 BO BOQUILLAS  Manatí PR 00674</Address>
    <Telephone>787-854-6788</Telephone>
    <Latitude>18.46568</Latitude>
    <Longitude>-66.4921</Longitude>
    <Type>School</Type>
  </Location>
  <Location>
    <Id>82</Id>
    <Name>MICAELA ESCUDERO</Name>
    <Description>Escuela: 12039</Description>
    <Address>CARR 2 KM 44 HM 4 BO CANTERA  Manatí PR 00674</Address>
    <Telephone>787-884-3106</Telephone>
    <Latitude>18.442313</Latitude>
    <Longitude>-66.444571</Longitude>
    <Type>School</Type>
  </Location>
  <Location>
    <Id>83</Id>
    <Name>AUGUSTO COHEN</Name>
    <Description>Escuela: 12047</Description>
    <Address>CARR 616 SECT LA LUISA  Manatí PR 00674</Address>
    <Telephone>787-884-6519</Telephone>
    <Latitude>18.448843</Latitude>
    <Longitude>-66.510855</Longitude>
    <Type>School</Type>
  </Location>
  <Location>
    <Id>84</Id>
    <Name>FRANCISCO MENENDEZ BALBANE</Name>
    <Description>Escuela: 12062</Description>
    <Address>CARR 667 KM 4 HM 6 BO CORTES  BARCELONETA PR 00674</Address>
    <Telephone>787-854-3063</Telephone>
    <Latitude>18.412998</Latitude>
    <Longitude>-66.530188</Longitude>
    <Type>School</Type>
  </Location>
  <Location>
    <Id>85</Id>
    <Name>FELIX CORDOVA DAVILA</Name>
    <Description>Escuela: 12070</Description>
    <Address>CARR 668 KM 1 HM 8 BDA CORDOVA DAVILA  Manatí PR 00674</Address>
    <Telephone>787-854-4255</Telephone>
    <Latitude>18.435251</Latitude>
    <Longitude>-66.483514</Longitude>
    <Type>School</Type>
  </Location>
  <Location>
    <Id>86</Id>
    <Name>FERNANDO CALLEJO</Name>
    <Description>Escuela: 12088</Description>
    <Address>CALLE VENDING ESQ ROSARIO  Manatí PR 00674</Address>
    <Telephone>787-854-2629</Telephone>
    <Latitude>0</Latitude>
    <Longitude>0</Longitude>
    <Type>School</Type>
  </Location>
  <Location>
    <Id>87</Id>
    <Name>JESUS T PINERO</Name>
    <Description>Escuela: 12096</Description>
    <Address>AVE ROSAS ESQ PATRIOTA POZO  Manatí PR 00674</Address>
    <Telephone>787-854-2259</Telephone>
    <Latitude>18.425836</Latitude>
    <Longitude>-66.490971</Longitude>
    <Type>School</Type>
  </Location>
  <Location>
    <Id>88</Id>
    <Name>JOSE DE DIEGO</Name>
    <Description>Escuela: 12104</Description>
    <Address>17 CALLE BALDORIOTY  Manatí PR 00674</Address>
    <Telephone>787-854-2272</Telephone>
    <Latitude>18.426345</Latitude>
    <Longitude>-66.494022</Longitude>
    <Type>School</Type>
  </Location>
  <Location>
    <Id>89</Id>
    <Name>EVARISTO CAMACHO</Name>
    <Description>Escuela: 12138</Description>
    <Address>CARR 643 KM 2 HM 1 BO PUGNADO  BARCELONETA PR 00674</Address>
    <Telephone>787-854-6315</Telephone>
    <Latitude>18.381652</Latitude>
    <Longitude>-66.468256</Longitude>
    <Type>School</Type>
  </Location>
  <Location>
    <Id>90</Id>
    <Name>CLEMENTE RAMIREZ DE ARELLANO</Name>
    <Description>Escuela: 12153</Description>
    <Address>CARR 670 KM 4 HM 9 BO PUEBLITO  Manatí PR 00674</Address>
    <Telephone>787-884-3031</Telephone>
    <Latitude>18.429149</Latitude>
    <Longitude>-66.445766</Longitude>
    <Type>School</Type>
  </Location>
  <Location>
    <Id>91</Id>
    <Name>ANTONIO VELEZ  ALVARADO</Name>
    <Description>Escuela: 12187</Description>
    <Address>CARR 2 KM 46 HM 8 BO CAMPO ALEGRE  Manatí PR 00674</Address>
    <Telephone>787-854-4160</Telephone>
    <Latitude>18.434997</Latitude>
    <Longitude>-66.466131</Longitude>
    <Type>School</Type>
  </Location>
  <Location>
    <Id>92</Id>
    <Name>SU FEDERICO FREYTES RODRIGUEZ</Name>
    <Description>Escuela: 12195</Description>
    <Address>CARR 624 KM 5 HM 8 BO MONTE BELLO  FLORIDA PR 00674</Address>
    <Telephone>787-854-9672</Telephone>
    <Latitude>18.368479</Latitude>
    <Longitude>-66.522469</Longitude>
    <Type>School</Type>
  </Location>
  <Location>
    <Id>93</Id>
    <Name>JOSEFA RIVERA MIRANDA</Name>
    <Description>Escuela: 12211</Description>
    <Address>CARR 608 KM 1 HM 8 BO SAN JOSE  Manatí PR 00674</Address>
    <Telephone>787-854-7227</Telephone>
    <Latitude>18.437288</Latitude>
    <Longitude>-66.489084</Longitude>
    <Type>School</Type>
  </Location>
  <Location>
    <Id>94</Id>
    <Name>TEODOMIRO TABOAS</Name>
    <Description>Escuela: 12229</Description>
    <Address>CALLE VENDIG ESQ GEORGETTI  Manatí PR 00674</Address>
    <Telephone>787-854-2255</Telephone>
    <Latitude>18.428669</Latitude>
    <Longitude>-66.48747</Longitude>
    <Type>School</Type>
  </Location>
  <Location>
    <Id>95</Id>
    <Name>CRUZ ROSA RIVAS</Name>
    <Description>Escuela: 12237</Description>
    <Address>CARR 685 KM 1 HM 1 BO TIERRAS NUEVAS  Manatí PR 00674</Address>
    <Telephone>787-854-4900</Telephone>
    <Latitude>18.449144</Latitude>
    <Longitude>-66.49761</Longitude>
    <Type>School</Type>
  </Location>
  <Location>
    <Id>96</Id>
    <Name>FRANCISCO RIVERA CLAUDIO</Name>
    <Description>Escuela: 12245</Description>
    <Address>CARR 159KM 1 HM O AVE. COROZAL  MOROVIS PR 00687</Address>
    <Telephone>787-862-4985</Telephone>
    <Latitude>18.325939</Latitude>
    <Longitude>-66.401451</Longitude>
    <Type>School</Type>
  </Location>
  <Location>
    <Id>97</Id>
    <Name>ESPERANZA GONZALEZ</Name>
    <Description>Escuela: 12260</Description>
    <Address>CARR 159 KM 9 RAMAL 618 BO CUCHILLAS  MOROVIS PR 00687</Address>
    <Telephone>787-862-2792</Telephone>
    <Latitude>18.30753</Latitude>
    <Longitude>-66.39289</Longitude>
    <Type>School</Type>
  </Location>
  <Location>
    <Id>98</Id>
    <Name>JUANA G AVILES (FRANQUEZ)</Name>
    <Description>Escuela: 12278</Description>
    <Address>CARR 155 KM 2 HM 1 RAMAL 634 BO FRANQUEZ  MOROVIS PR 00687</Address>
    <Telephone>787-862-2440</Telephone>
    <Latitude>18.356268</Latitude>
    <Longitude>-66.409717</Longitude>
    <Type>School</Type>
  </Location>
  <Location>
    <Id>99</Id>
    <Name>RAMON TORRES RIVERA</Name>
    <Description>Escuela: 12336</Description>
    <Address>CARR 155 KM 5 HM 9 RAMAL 567 BO SAN LORENZO  MOROVIS PR 00687</Address>
    <Telephone>787-862-3406</Telephone>
    <Latitude>18.303382</Latitude>
    <Longitude>-66.43418</Longitude>
    <Type>School</Type>
  </Location>
  <Location>
    <Id>100</Id>
    <Name>DR PEDRO N ORTIZ</Name>
    <Description>Escuela: 12351</Description>
    <Address>CARR 159 KM 4 BO MONTELLANO  MOROVIS PR 00687</Address>
    <Telephone>787-862-3382</Telephone>
    <Latitude>18.32009</Latitude>
    <Longitude>-66.39315</Longitude>
    <Type>School</Type>
  </Location>
  <Location>
    <Id>101</Id>
    <Name>ELEMENTAL URBANA</Name>
    <Description>Escuela: 12369</Description>
    <Address>CALLE DEL CARMEN FINAL BO PUEBLO  MOROVIS PR 00687</Address>
    <Telephone>787-862-2570</Telephone>
    <Latitude>18.32582</Latitude>
    <Longitude>-66.40848</Longitude>
    <Type>School</Type>
  </Location>
  <Location>
    <Id>102</Id>
    <Name>JAIME A COLLAZO DEL RIO</Name>
    <Description>Escuela: 12377</Description>
    <Address>CARR 159 KM  O HM 7 AVE COROZAL BO PUEBLO  MOROVIS PR 00687</Address>
    <Telephone>787-862-2300</Telephone>
    <Latitude>18.324921</Latitude>
    <Longitude>-66.404551</Longitude>
    <Type>School</Type>
  </Location>
  <Location>
    <Id>103</Id>
    <Name>MANUEL ALONSO DIAZ TORRES</Name>
    <Description>Escuela: 12385</Description>
    <Address>CARR 155 KM 51 HM 7 BO TORRECILLAS  MOROVIS PR 00687</Address>
    <Telephone>787-862-4910</Telephone>
    <Latitude>18.33766</Latitude>
    <Longitude>-66.42803</Longitude>
    <Type>School</Type>
  </Location>
  <Location>
    <Id>104</Id>
    <Name>PERCHAS DIAZ</Name>
    <Description>Escuela: 12393</Description>
    <Address>CARR 155 KM 36 HM 4 BO PERCHAS  MOROVIS PR 00687</Address>
    <Telephone>787-862-3442</Telephone>
    <Latitude>18.280315</Latitude>
    <Longitude>-66.410668</Longitude>
    <Type>School</Type>
  </Location>
  <Location>
    <Id>105</Id>
    <Name>SU JOSE R BARRERAS</Name>
    <Description>Escuela: 12401</Description>
    <Address>CARR 159 KM 5 HM 6  MOROVIS PR 00687</Address>
    <Telephone>787-862-2814</Telephone>
    <Latitude>18.335731</Latitude>
    <Longitude>-66.373413</Longitude>
    <Type>School</Type>
  </Location>
  <Location>
    <Id>106</Id>
    <Name>SU DAVID COLON VEGA</Name>
    <Description>Escuela: 12419</Description>
    <Address>CARR 617 KM 3 HM 1 RAMAL 6616 BO MOROVIS SUR  MOROVIS PR 00687</Address>
    <Telephone>787-862-2835</Telephone>
    <Latitude>18.30369</Latitude>
    <Longitude>-66.41467</Longitude>
    <Type>School</Type>
  </Location>
  <Location>
    <Id>107</Id>
    <Name>BARAHONA (ELEMENTAL)</Name>
    <Description>Escuela: 12435</Description>
    <Address>CARR 33 KM 4 HM O BO BARAHONA  MOROVIS PR 00687</Address>
    <Telephone>787-862-2010</Telephone>
    <Latitude>18.355015</Latitude>
    <Longitude>-66.442333</Longitude>
    <Type>School</Type>
  </Location>
  <Location>
    <Id>108</Id>
    <Name>SU BONIFACIO ALVARADO</Name>
    <Description>Escuela: 12518</Description>
    <Address>CARR 143 KM 41 HM 8 BO BERMEJALES  OROCOVIS PR 00720</Address>
    <Telephone>787-867-4633</Telephone>
    <Latitude>18.17448</Latitude>
    <Longitude>-66.432872</Longitude>
    <Type>School</Type>
  </Location>
  <Location>
    <Id>109</Id>
    <Name>ANGEL G RIVERA</Name>
    <Description>Escuela: 12534</Description>
    <Address>CARR 157 KM 2 BO CACAO  OROCOVIS PR 00720</Address>
    <Telephone>787-867-5488</Telephone>
    <Latitude>18.226754</Latitude>
    <Longitude>-66.503503</Longitude>
    <Type>School</Type>
  </Location>
  <Location>
    <Id>110</Id>
    <Name>DAMIAN ABAJO</Name>
    <Description>Escuela: 12567</Description>
    <Address>CARR 157 KM 12 HM 6 BO DAMIAN ABAJO  OROCOVIS PR 00720</Address>
    <Telephone>787-867-5466</Telephone>
    <Latitude>18.238034</Latitude>
    <Longitude>-66.461818</Longitude>
    <Type>School</Type>
  </Location>
  <Location>
    <Id>111</Id>
    <Name>ROMAN DIAZ AVILES</Name>
    <Description>Escuela: 12575</Description>
    <Address>CARR 157 KM 20 HM 4 BO DAMIAN ARRIBA  OROCOVIS PR 00720</Address>
    <Telephone>787-867-0011</Telephone>
    <Latitude>18.240753</Latitude>
    <Longitude>-66.420725</Longitude>
    <Type>School</Type>
  </Location>
  <Location>
    <Id>112</Id>
    <Name>INTERMEDIA URBANA</Name>
    <Description>Escuela: 12617</Description>
    <Address>CARR 155 KM 27.5  OROCOVIS PR 00720</Address>
    <Telephone>787-867-2840</Telephone>
    <Latitude>18.226091</Latitude>
    <Longitude>-66.392751</Longitude>
    <Type>School</Type>
  </Location>
  <Location>
    <Id>113</Id>
    <Name>GATO I</Name>
    <Description>Escuela: 12625</Description>
    <Address>CARR 155 KM 32 HM 6 BO GATO  OROCOVIS PR 00720</Address>
    <Telephone>787-867-2410</Telephone>
    <Latitude>18.251995</Latitude>
    <Longitude>-66.394327</Longitude>
    <Type>School</Type>
  </Location>
  <Location>
    <Id>114</Id>
    <Name>VISITACION PAGAN</Name>
    <Description>Escuela: 12633</Description>
    <Address>CARR 155 KM 34 HM 1 BO GATO  OROCOVIS PR 00720</Address>
    <Telephone>787-867-5383</Telephone>
    <Latitude>0</Latitude>
    <Longitude>0</Longitude>
    <Type>School</Type>
  </Location>
  <Location>
    <Id>115</Id>
    <Name>SU MATRULLAS</Name>
    <Description>Escuela: 12666</Description>
    <Address>CARR 564 KM 4 HM 3 BO MATRULLAS  OROCOVIS PR 00720</Address>
    <Telephone>787-867-3966</Telephone>
    <Latitude>18.200725</Latitude>
    <Longitude>-66.487666</Longitude>
    <Type>School</Type>
  </Location>
  <Location>
    <Id>116</Id>
    <Name>SU ANA DALILA BURGOS ORTIZ</Name>
    <Description>Escuela: 12708</Description>
    <Address>CARR 155 KM 1 BO BAUTA ARRIBA  OROCOVIS PR 00720</Address>
    <Telephone>787-867-0106</Telephone>
    <Latitude>18.184721</Latitude>
    <Longitude>-66.402137</Longitude>
    <Type>School</Type>
  </Location>
  <Location>
    <Id>117</Id>
    <Name>SU BOTIJAS I</Name>
    <Description>Escuela: 12716</Description>
    <Address>CARR 568 KM 5 HM 5 BO BOTIJAS I  OROCOVIS PR 00720</Address>
    <Telephone>787-867-2260</Telephone>
    <Latitude>18.241386</Latitude>
    <Longitude>-66.366435</Longitude>
    <Type>School</Type>
  </Location>
  <Location>
    <Id>118</Id>
    <Name>SU BOTIJAS II</Name>
    <Description>Escuela: 12724</Description>
    <Address>CARR 156 KM 6 HM 2 BO BOTIJAS 2  OROCOVIS PR 00720</Address>
    <Telephone>787-867-0411</Telephone>
    <Latitude>18.21376</Latitude>
    <Longitude>-66.356073</Longitude>
    <Type>School</Type>
  </Location>
  <Location>
    <Id>119</Id>
    <Name>SU SALTOS CABRAS</Name>
    <Description>Escuela: 12740</Description>
    <Address>CARR 566 KM 2 HM I BO SALTOS  OROCOVIS PR 00720</Address>
    <Telephone>787-867-4686</Telephone>
    <Latitude>18.204176</Latitude>
    <Longitude>-66.422293</Longitude>
    <Type>School</Type>
  </Location>
  <Location>
    <Id>120</Id>
    <Name>SU SANAMUERTOS</Name>
    <Description>Escuela: 12765</Description>
    <Address>CARR 157 KM 23 BO BARROS  OROCOVIS PR 00720</Address>
    <Telephone>787-867-2870</Telephone>
    <Latitude>18.239558</Latitude>
    <Longitude>-66.404681</Longitude>
    <Type>School</Type>
  </Location>
  <Location>
    <Id>121</Id>
    <Name>RAMON EMETERIO BETANCES</Name>
    <Description>Escuela: 12799</Description>
    <Address>236 CALLE SAN JUSTO  QUEBRADILLAS PR 00678</Address>
    <Telephone>787-895-2575</Telephone>
    <Latitude>18.47555</Latitude>
    <Longitude>-66.93898</Longitude>
    <Type>School</Type>
  </Location>
  <Location>
    <Id>122</Id>
    <Name>SU EUGENIO MARIA DE HOSTOS</Name>
    <Description>Escuela: 12807</Description>
    <Address>CARR 453 SECT SOLLER BO GUAJATACA  QUEBRADILLAS PR 00678</Address>
    <Telephone>787-895-5077</Telephone>
    <Latitude>18.384774</Latitude>
    <Longitude>-66.91435</Longitude>
    <Type>School</Type>
  </Location>
  <Location>
    <Id>123</Id>
    <Name>JOSE DE DIEGO</Name>
    <Description>Escuela: 12849</Description>
    <Address>CARR 113 KM 5 HM 7  QUEBRADILLAS PR 00678</Address>
    <Telephone>787-895-5709</Telephone>
    <Latitude>18.42513</Latitude>
    <Longitude>-66.92243</Longitude>
    <Type>School</Type>
  </Location>
  <Location>
    <Id>124</Id>
    <Name>DR PEDRO ALBIZU CAMPOS</Name>
    <Description>Escuela: 12872</Description>
    <Address>CARR 113 CALLE LINARES  QUEBRADILLAS PR 00678</Address>
    <Telephone>787-895-2780</Telephone>
    <Latitude>18.468491</Latitude>
    <Longitude>-66.939147</Longitude>
    <Type>School</Type>
  </Location>
  <Location>
    <Id>125</Id>
    <Name>RAMON AVILA MOLINARI</Name>
    <Description>Escuela: 12880</Description>
    <Address>CARR 113 KM 3 HM 8  QUEBRADILLAS PR 00678</Address>
    <Telephone>787-895-3169</Telephone>
    <Latitude>18.457214</Latitude>
    <Longitude>-66.949102</Longitude>
    <Type>School</Type>
  </Location>
  <Location>
    <Id>126</Id>
    <Name>RAMON SAAVEDRA</Name>
    <Description>Escuela: 12898</Description>
    <Address>CARR 113 KM 1 RAMAL 478 BO SAN ANTONIO  QUEBRADILLAS PR 00678</Address>
    <Telephone>787-895-0275</Telephone>
    <Latitude>18.440504</Latitude>
    <Longitude>-66.918758</Longitude>
    <Type>School</Type>
  </Location>
  <Location>
    <Id>127</Id>
    <Name>SU HONORIO HERNANDEZ</Name>
    <Description>Escuela: 12914</Description>
    <Address>CARR 113 KM 3 HM 8 BO SAN ANTONIO  QUEBRADILLAS PR 00678</Address>
    <Telephone>787-895-2962</Telephone>
    <Latitude>18.4413</Latitude>
    <Longitude>-66.93177</Longitude>
    <Type>School</Type>
  </Location>
  <Location>
    <Id>128</Id>
    <Name>SU LUIS MUNOZ RIVERA</Name>
    <Description>Escuela: 12922</Description>
    <Address>CARR 2 RAMAL 484 BO COCOS  QUEBRADILLAS PR 00678</Address>
    <Telephone>787-895-2146</Telephone>
    <Latitude>0</Latitude>
    <Longitude>0</Longitude>
    <Type>School</Type>
  </Location>
  <Location>
    <Id>129</Id>
    <Name>JUAN ALEJO ARIZMENDI</Name>
    <Description>Escuela: 12930</Description>
    <Address>CALLE FRANCISCO AVILA  QUEBRADILLAS PR 00678</Address>
    <Telephone>787-895-2180</Telephone>
    <Latitude>18.474698</Latitude>
    <Longitude>-66.936415</Longitude>
    <Type>School</Type>
  </Location>
  <Location>
    <Id>130</Id>
    <Name>ANGELES EL CORCHO</Name>
    <Description>Escuela: 12955</Description>
    <Address>CARR 600 KM 2 HM 2 BO ANGELES EL CORCHO  UTUADO PR 00641</Address>
    <Telephone>787-894-5337</Telephone>
    <Latitude>18.281581</Latitude>
    <Longitude>-66.818253</Longitude>
    <Type>School</Type>
  </Location>
  <Location>
    <Id>131</Id>
    <Name>CARMEN APONTE</Name>
    <Description>Escuela: 13094</Description>
    <Address>CARR 621 KM 21 HM 5 SECT CAYUCO  UTUADO PR 00641</Address>
    <Telephone>787-894-7744</Telephone>
    <Latitude>18.294729</Latitude>
    <Longitude>-66.739463</Longitude>
    <Type>School</Type>
  </Location>
  <Location>
    <Id>132</Id>
    <Name>FELIX SEIJO</Name>
    <Description>Escuela: 13144</Description>
    <Address>6 CALLE TOMAS JORDAN  UTUADO PR 00641</Address>
    <Telephone>787-894-2600</Telephone>
    <Latitude>18.265184</Latitude>
    <Longitude>-66.702461</Longitude>
    <Type>School</Type>
  </Location>
  <Location>
    <Id>133</Id>
    <Name>FRANCISCO RAMOS</Name>
    <Description>Escuela: 13151</Description>
    <Address>CALLE DR CUETO  UTUADO PR 00641</Address>
    <Telephone>787-894-2470</Telephone>
    <Latitude>18.266068</Latitude>
    <Longitude>-66.705403</Longitude>
    <Type>School</Type>
  </Location>
  <Location>
    <Id>134</Id>
    <Name>PASO PALMA I</Name>
    <Description>Escuela: 13235</Description>
    <Address>CARR 140 KM 15 BO PASO PALMA  JAYUYA PR 00641</Address>
    <Telephone>787-894-0241</Telephone>
    <Latitude>18.227207</Latitude>
    <Longitude>-66.652523</Longitude>
    <Type>School</Type>
  </Location>
  <Location>
    <Id>135</Id>
    <Name>JOSE VIZCARRONDO</Name>
    <Description>Escuela: 13318</Description>
    <Address>CARR 111 INT 602 BO ANGELES  UTUADO PR 00641</Address>
    <Telephone>787-894-7702</Telephone>
    <Latitude>18.28419</Latitude>
    <Longitude>-66.803196</Longitude>
    <Type>School</Type>
  </Location>
  <Location>
    <Id>136</Id>
    <Name>FRANCISCO JORDAN</Name>
    <Description>Escuela: 13326</Description>
    <Address>CARR 111 RAMAL 621  UTUADO PR 00641</Address>
    <Telephone>787-894-7705</Telephone>
    <Latitude>18.283434</Latitude>
    <Longitude>-66.751561</Longitude>
    <Type>School</Type>
  </Location>
  <Location>
    <Id>137</Id>
    <Name>SU MARTA LAFONTAINE</Name>
    <Description>Escuela: 13334</Description>
    <Address>CARR 613 KM 3 HM 2 BO CAONILLAS  JAYUYA PR 00641</Address>
    <Telephone>787-894-0000</Telephone>
    <Latitude>18.268057</Latitude>
    <Longitude>-66.64424</Longitude>
    <Type>School</Type>
  </Location>
  <Location>
    <Id>138</Id>
    <Name>ANTONIO TULLA TORRES</Name>
    <Description>Escuela: 13342</Description>
    <Address>CARR 140 KM 5 HM 6 BO MAMEYES  JAYUYA PR 00641</Address>
    <Telephone>787-894-0229</Telephone>
    <Latitude>18.29906</Latitude>
    <Longitude>-66.602313</Longitude>
    <Type>School</Type>
  </Location>
  <Location>
    <Id>139</Id>
    <Name>INOCENCIO MONTERO</Name>
    <Description>Escuela: 13359</Description>
    <Address>CARR 110 KM 51 HM 6 BO SALTO ARRIBA  UTUADO PR 00641</Address>
    <Telephone>787-894-1448</Telephone>
    <Latitude>18.24821</Latitude>
    <Longitude>-66.720998</Longitude>
    <Type>School</Type>
  </Location>
  <Location>
    <Id>140</Id>
    <Name>ISABEL M RIVERA</Name>
    <Description>Escuela: 13375</Description>
    <Address>CARR 611 KM 7 BO SABANA GRANDO  UTUADO PR 00641</Address>
    <Telephone>787-894-2680</Telephone>
    <Latitude>18.283419</Latitude>
    <Longitude>-66.665997</Longitude>
    <Type>School</Type>
  </Location>
  <Location>
    <Id>141</Id>
    <Name>BERNARDO GONZALEZ COLON</Name>
    <Description>Escuela: 13391</Description>
    <Address>CARR 10 KM 56 HM 3 BO SALTA ABAJO  UTUADO PR 00641</Address>
    <Telephone>787-894-2524</Telephone>
    <Latitude>18.275503</Latitude>
    <Longitude>-66.711259</Longitude>
    <Type>School</Type>
  </Location>
  <Location>
    <Id>142</Id>
    <Name>LUIS MUNOZ RIVERA</Name>
    <Description>Escuela: 13425</Description>
    <Address>124 CALLE DR CUETO  UTUADO PR 00641</Address>
    <Telephone>787-894-2666</Telephone>
    <Latitude>18.265809</Latitude>
    <Longitude>-66.70655</Longitude>
    <Type>School</Type>
  </Location>
  <Location>
    <Id>143</Id>
    <Name>MONSERRATE MORENO</Name>
    <Description>Escuela: 13474</Description>
    <Address>AVE ESTEVES KM 2 HM 9  UTUADO PR 00641</Address>
    <Telephone>787-894-2486</Telephone>
    <Latitude>18.261051</Latitude>
    <Longitude>-66.692561</Longitude>
    <Type>School</Type>
  </Location>
  <Location>
    <Id>144</Id>
    <Name>CELINA MAESTRE (VIVI ARRIBA)</Name>
    <Description>Escuela: 13482</Description>
    <Address>CARR 605 KM 4 HM 4 BO VIVI ARRIBA  UTUADO PR 00641</Address>
    <Telephone>787-894-5904</Telephone>
    <Latitude>18.221829</Latitude>
    <Longitude>-66.673594</Longitude>
    <Type>School</Type>
  </Location>
  <Location>
    <Id>145</Id>
    <Name>TRINA PADILLA DE SANZ</Name>
    <Description>Escuela: 14241</Description>
    <Address>URB VILLA LOS SANTOS CARR 653 KM 1  ARECIBO PR 00612</Address>
    <Telephone>787-878-1365</Telephone>
    <Latitude>18.46557</Latitude>
    <Longitude>-66.74341</Longitude>
    <Type>School</Type>
  </Location>
  <Location>
    <Id>146</Id>
    <Name>LIBRE DE MUSICA</Name>
    <Description>Escuela: 14316</Description>
    <Address>CARR 662 SECTOR LOS LLANOS BO SANTANA  ARECIBO PR 00612</Address>
    <Telephone>787-879-3567</Telephone>
    <Latitude>18.44052</Latitude>
    <Longitude>-66.66937</Longitude>
    <Type>School</Type>
  </Location>
  <Location>
    <Id>147</Id>
    <Name>ALBERTO MELENDEZ</Name>
    <Description>Escuela: 14340</Description>
    <Address>CALLE JUAN D RIVERA DE SANTIAGO  OROCOVIS PR 00720</Address>
    <Telephone>787-867-3353</Telephone>
    <Latitude>18.224003</Latitude>
    <Longitude>-66.39255</Longitude>
    <Type>School</Type>
  </Location>
  <Location>
    <Id>148</Id>
    <Name>JOSE ROJAS CORTES</Name>
    <Description>Escuela: 14357</Description>
    <Address>CALLE JUAN D RIVERA Y SANTIAGO  OROCOVIS PR 00720</Address>
    <Telephone>787-867-2630</Telephone>
    <Latitude>0</Latitude>
    <Longitude>0</Longitude>
    <Type>School</Type>
  </Location>
  <Location>
    <Id>149</Id>
    <Name>MARIA LIBERTAD GOMEZ</Name>
    <Description>Escuela: 14373</Description>
    <Address>URB PEREZ MATOS CALLE ROBLES #18  UTUADO PR 00641</Address>
    <Telephone>787-894-2188</Telephone>
    <Latitude>18.267781</Latitude>
    <Longitude>-66.705631</Longitude>
    <Type>School</Type>
  </Location>
  <Location>
    <Id>150</Id>
    <Name>PRE-VOCACIONAL JOSE LIMON ARCE</Name>
    <Description>Escuela: 14381</Description>
    <Address>CALLE ANTONIO R BARCELO HM 152 BO PUEBLO  ARECIBO PR 00612</Address>
    <Telephone>787-878-3300</Telephone>
    <Latitude>18.47247</Latitude>
    <Longitude>-66.719124</Longitude>
    <Type>School</Type>
  </Location>
  <Location>
    <Id>151</Id>
    <Name>JOSE A  MONTANEZ GENARO(VOC. AREA)</Name>
    <Description>Escuela: 14415</Description>
    <Address>CARR 2 KM 47 HM 7  Manatí PR 00674</Address>
    <Telephone>787-854-2250</Telephone>
    <Latitude>18.432939</Latitude>
    <Longitude>-66.472572</Longitude>
    <Type>School</Type>
  </Location>
  <Location>
    <Id>152</Id>
    <Name>MARIANO REYES CUEVAS</Name>
    <Description>Escuela: 14480</Description>
    <Address>#85 DR PEDRO ALBIZU CAMPOS  LARES PR 00669</Address>
    <Telephone>787-897-2160</Telephone>
    <Latitude>18.292463</Latitude>
    <Longitude>-66.883437</Longitude>
    <Type>School</Type>
  </Location>
  <Location>
    <Id>153</Id>
    <Name>JOBOS</Name>
    <Description>Escuela: 14555</Description>
    <Address>CARR 155 KM 1 HM 2 RAMAL 618  MOROVIS PR 00687</Address>
    <Telephone>787-862-3469</Telephone>
    <Latitude>18.306375</Latitude>
    <Longitude>-66.41281</Longitude>
    <Type>School</Type>
  </Location>
  <Location>
    <Id>154</Id>
    <Name>MARTIN DIEGO DELGADO</Name>
    <Description>Escuela: 14563</Description>
    <Address>URB UNIVERSITY GARDENS CALLE 8 BLQ JO  ARECIBO PR 00612</Address>
    <Telephone>787-878-0645</Telephone>
    <Latitude>0</Latitude>
    <Longitude>0</Longitude>
    <Type>School</Type>
  </Location>
  <Location>
    <Id>155</Id>
    <Name>JUAN A SANCHEZ DAVILA</Name>
    <Description>Escuela: 14779</Description>
    <Address>CARR 670 KM 1 HM 2  Manatí PR 00674</Address>
    <Telephone>787-854-7747</Telephone>
    <Latitude>18.423708</Latitude>
    <Longitude>-66.481075</Longitude>
    <Type>School</Type>
  </Location>
  <Location>
    <Id>156</Id>
    <Name>FRANCISCO PACHIN MARIN</Name>
    <Description>Escuela: 14787</Description>
    <Address>URB VISTA AZUL CALLE 17  ARECIBO PR 00612</Address>
    <Telephone>787-878-2019</Telephone>
    <Latitude>18.470227</Latitude>
    <Longitude>-66.753834</Longitude>
    <Type>School</Type>
  </Location>
  <Location>
    <Id>157</Id>
    <Name>ELBA LUGO CARRION</Name>
    <Description>Escuela: 15024</Description>
    <Address>URB VILLA SERENA CALLE ORQUIDEA  ARECIBO PR 00612</Address>
    <Telephone>787-879-4825</Telephone>
    <Latitude>18.454018</Latitude>
    <Longitude>-66.740125</Longitude>
    <Type>School</Type>
  </Location>
  <Location>
    <Id>158</Id>
    <Name>VOCACIONAL AGRICOLA SOLLER</Name>
    <Description>Escuela: 15156</Description>
    <Address>CARR 453 KM 6 HM 6 SECT SOLER BO CIBAO  CAMUY PR 00627</Address>
    <Telephone>787-898-6549</Telephone>
    <Latitude>18.372304</Latitude>
    <Longitude>-66.895152</Longitude>
    <Type>School</Type>
  </Location>
  <Location>
    <Id>159</Id>
    <Name>MANUEL CORCHADO Y JUARBE</Name>
    <Description>Escuela: 15206</Description>
    <Address>CALLE ENSANCHE GONZALEZ  ISABELA PR 00662</Address>
    <Telephone>787-872-2320</Telephone>
    <Latitude>18.50051</Latitude>
    <Longitude>-67.019785</Longitude>
    <Type>School</Type>
  </Location>
  <Location>
    <Id>160</Id>
    <Name>JOSE JULIAN ACOSTA</Name>
    <Description>Escuela: 15214</Description>
    <Address>199 AVE ESTACION SECT LOS MELENDEZ  ISABELA PR 00662</Address>
    <Telephone>787-872-2440</Telephone>
    <Latitude>18.488363</Latitude>
    <Longitude>-67.030215</Longitude>
    <Type>School</Type>
  </Location>
  <Location>
    <Id>161</Id>
    <Name>EMILIA CASTILLO</Name>
    <Description>Escuela: 15222</Description>
    <Address>99 AVE ESTACION SECT LOS MELENDEZ  ISABELA PR 00662</Address>
    <Telephone>787-830-2925</Telephone>
    <Latitude>18.497442</Latitude>
    <Longitude>-67.029614</Longitude>
    <Type>School</Type>
  </Location>
  <Location>
    <Id>162</Id>
    <Name>LUIS MUNOZ RIVERA</Name>
    <Description>Escuela: 15230</Description>
    <Address>60 CALLE BARBOSA  ISABELA PR 00662</Address>
    <Telephone>787-872-2388</Telephone>
    <Latitude>18.493448</Latitude>
    <Longitude>-67.010206</Longitude>
    <Type>School</Type>
  </Location>
  <Location>
    <Id>163</Id>
    <Name>FRANCISCO MENDOZA</Name>
    <Description>Escuela: 15248</Description>
    <Address>CALLE CORCHADO  ISABELA PR 00662</Address>
    <Telephone>787-872-2275</Telephone>
    <Latitude>0</Latitude>
    <Longitude>0</Longitude>
    <Type>School</Type>
  </Location>
  <Location>
    <Id>164</Id>
    <Name>JUAN B HUYKE</Name>
    <Description>Escuela: 15255</Description>
    <Address>CARR 466 KM 3 HM 5 Interior calle Crucero esq. Puerto ISABELA PR 00662</Address>
    <Telephone>787-872-5520</Telephone>
    <Latitude>18.503642</Latitude>
    <Longitude>-67.073714</Longitude>
    <Type>School</Type>
  </Location>
  <Location>
    <Id>165</Id>
    <Name>Benjamin Corchado</Name>
    <Description>Escuela: 15297</Description>
    <Address>CARR 112 KM 0 HM 4 PARCELAS MORA GUERRERO ISABELA PR 00662</Address>
    <Telephone>787-830-5780</Telephone>
    <Latitude>18.463848</Latitude>
    <Longitude>-67.030411</Longitude>
    <Type>School</Type>
  </Location>
  <Location>
    <Id>166</Id>
    <Name>FRANCISCA CHAVEZ (LA PLANTA)</Name>
    <Description>Escuela: 15305</Description>
    <Address>CARR 475 KM 0 HM 9 BO ARENALES ABAJO  ISABELA PR 00662</Address>
    <Telephone>787-872-4096</Telephone>
    <Latitude>18.464727</Latitude>
    <Longitude>-67.012887</Longitude>
    <Type>School</Type>
  </Location>
  <Location>
    <Id>167</Id>
    <Name>NICANDRO GARCIA</Name>
    <Description>Escuela: 15321</Description>
    <Address>CARR 474 KM. 3.9 GALATEO ALTO  ISABELA PR 00662</Address>
    <Telephone>787-872-5630</Telephone>
    <Latitude>18.449386</Latitude>
    <Longitude>-67.000197</Longitude>
    <Type>School</Type>
  </Location>
  <Location>
    <Id>168</Id>
    <Name>MATEO HERNANDEZ</Name>
    <Description>Escuela: 15396</Description>
    <Address>CARR 113 KM 3 HM 2 AVE NOEL ESTRADA BO GUAYABOS  ISABELA PR 00662</Address>
    <Telephone>787-872-5770</Telephone>
    <Latitude>18.487922</Latitude>
    <Longitude>-66.999289</Longitude>
    <Type>School</Type>
  </Location>
  <Location>
    <Id>169</Id>
    <Name>EPIFANIO ESTRADA</Name>
    <Description>Escuela: 15404</Description>
    <Address>CARR 113 KM 9 HM 9 BO COTTO  ISABELA PR 00662</Address>
    <Telephone>787-872-4650</Telephone>
    <Latitude>18.48664</Latitude>
    <Longitude>-66.973596</Longitude>
    <Type>School</Type>
  </Location>
  <Location>
    <Id>170</Id>
    <Name>GLORIA GONZALEZ</Name>
    <Description>Escuela: 15412</Description>
    <Address>CARR 457 KM 3 HM 4 BO. PLANAS DE ISABELA ISABELA PR 00662</Address>
    <Telephone>787-872-3440</Telephone>
    <Latitude>18.385742</Latitude>
    <Longitude>-66.954921</Longitude>
    <Type>School</Type>
  </Location>
  <Location>
    <Id>171</Id>
    <Name>MANTILLA</Name>
    <Description>Escuela: 15420</Description>
    <Address>CARR 4474 CALLE 5 SECT MANTILLA  ISABELA PR 00662</Address>
    <Telephone>787-872-5050</Telephone>
    <Latitude>18.449567</Latitude>
    <Longitude>-67.011877</Longitude>
    <Type>School</Type>
  </Location>
  <Location>
    <Id>172</Id>
    <Name>ANTONIO GEIGEL PAREDES</Name>
    <Description>Escuela: 15438</Description>
    <Address>CARR 112 KM.3.5 BO. MORA  ISABELA PR 00662</Address>
    <Telephone>787-872-1942</Telephone>
    <Latitude>0</Latitude>
    <Longitude>0</Longitude>
    <Type>School</Type>
  </Location>
  <Location>
    <Id>173</Id>
    <Name>JOSE C ROSARIO</Name>
    <Description>Escuela: 15446</Description>
    <Address>CARR 2 KM 11 HM 2 BO MORA  ISABELA PR 00662</Address>
    <Telephone>787-830-2025</Telephone>
    <Latitude>18.469911</Latitude>
    <Longitude>-67.027075</Longitude>
    <Type>School</Type>
  </Location>
  <Location>
    <Id>174</Id>
    <Name>SU JOSE A VARGAS</Name>
    <Description>Escuela: 15453</Description>
    <Address>CARR 446 KM 4.2 HM 4 BO LLAMADAS SECT SANTA ROSA  ISABELA PR 00662</Address>
    <Telephone>787-830-0260</Telephone>
    <Latitude>18.45752</Latitude>
    <Longitude>-66.97973</Longitude>
    <Type>School</Type>
  </Location>
  <Location>
    <Id>175</Id>
    <Name>MARIA CATALINA TEJADA</Name>
    <Description>Escuela: 15461</Description>
    <Address>CARR 657 KM 1 HM 5 BO ARENA LEJOS  ARECIBO PR 00616</Address>
    <Telephone>787-881-6264</Telephone>
    <Latitude>18.425801</Latitude>
    <Longitude>-66.68418</Longitude>
    <Type>School</Type>
  </Location>
  <Location>
    <Id>176</Id>
    <Name>LUIS MUNOZ RIVERA</Name>
    <Description>Escuela: 15701</Description>
    <Address>AVE JOSE DE DIEGO #300  ARECIBO PR 00612</Address>
    <Telephone>787-878-3034</Telephone>
    <Latitude>0</Latitude>
    <Longitude>0</Longitude>
    <Type>School</Type>
  </Location>
  <Location>
    <Id>177</Id>
    <Name>IRMA DELIZ DE MUNOZ</Name>
    <Description>Escuela: 15750</Description>
    <Address>AVE JUAN HERNANDEZ ORTIZ  ISABELA PR 00662</Address>
    <Telephone>787-872-4070</Telephone>
    <Latitude>18.498127</Latitude>
    <Longitude>-67.021234</Longitude>
    <Type>School</Type>
  </Location>
  <Location>
    <Id>178</Id>
    <Name>JOSE GAUTIER BENITEZ</Name>
    <Description>Escuela: 15768</Description>
    <Address>CARR 490 KM 3.8  HATILLO PR 00659</Address>
    <Telephone>787-898-9096</Telephone>
    <Latitude>18.427872</Latitude>
    <Longitude>-66.788399</Longitude>
    <Type>School</Type>
  </Location>
  <Location>
    <Id>179</Id>
    <Name>ABELARDO MARTINEZ OTERO</Name>
    <Description>Escuela: 15784</Description>
    <Address>VILLA LOS SANTOS CALLE 14 FINAL  ARECIBO PR 00612</Address>
    <Telephone>787-879-2614</Telephone>
    <Latitude>18.462526</Latitude>
    <Longitude>-66.740188</Longitude>
    <Type>School</Type>
  </Location>
  <Location>
    <Id>180</Id>
    <Name>DR HERIBERTO DOMENECH</Name>
    <Description>Escuela: 15792</Description>
    <Address>CARR 2 KM 112 BO MORA  ISABELA PR 00662</Address>
    <Telephone>787-830-2915</Telephone>
    <Latitude>18.47083</Latitude>
    <Longitude>-67.026209</Longitude>
    <Type>School</Type>
  </Location>
  <Location>
    <Id>181</Id>
    <Name>RAMON DE JESUS SIERRA</Name>
    <Description>Escuela: 15917</Description>
    <Address>AVE LOS PATRIOTAS  LARES PR 00669</Address>
    <Telephone>787-897-2590</Telephone>
    <Latitude>18.292451</Latitude>
    <Longitude>-66.889918</Longitude>
    <Type>School</Type>
  </Location>
  <Location>
    <Id>182</Id>
    <Name>JUDITH VIVAS</Name>
    <Description>Escuela: 16220</Description>
    <Address>AVE RIBAS DOMINICCI  UTUADO PR 00641</Address>
    <Telephone>787-894-3446</Telephone>
    <Latitude>18.267013</Latitude>
    <Longitude>-66.695503</Longitude>
    <Type>School</Type>
  </Location>
  <Location>
    <Id>183</Id>
    <Name>FRANCISCO FRIAS MORALES</Name>
    <Description>Escuela: 16287</Description>
    <Address>CARR 140 SECTOR LA VAZQUEZ  FLORIDA PR 00650</Address>
    <Telephone>787-822-3828</Telephone>
    <Latitude>18.3617</Latitude>
    <Longitude>-66.569183</Longitude>
    <Type>School</Type>
  </Location>
  <Location>
    <Id>184</Id>
    <Name>LUIS MUNOZ MARIN</Name>
    <Description>Escuela: 17111</Description>
    <Address>CARR 53 KM 1 HM 5 SECT BARRANCAS  ARECIBO PR 00612</Address>
    <Telephone>787-880-0757</Telephone>
    <Latitude>18.466197</Latitude>
    <Longitude>-66.746744</Longitude>
    <Type>School</Type>
  </Location>
  <Location>
    <Id>185</Id>
    <Name>ZENON RIVERA</Name>
    <Description>Escuela: 17152</Description>
    <Address>CARR 149 KM 20 HM 5 BO PESA  CIALES PR 00638</Address>
    <Telephone>787-871-5006</Telephone>
    <Latitude>18.298612</Latitude>
    <Longitude>-66.489999</Longitude>
    <Type>School</Type>
  </Location>
  <Location>
    <Id>186</Id>
    <Name>ANGEL G. QUINTERO</Name>
    <Description>Escuela: 17186</Description>
    <Address>CARR 633 KM 4 HM 7 BO BARAHONA  MOROVIS PR 00687</Address>
    <Telephone>787-862-1716</Telephone>
    <Latitude>18.358161</Latitude>
    <Longitude>-66.445808</Longitude>
    <Type>School</Type>
  </Location>
  <Location>
    <Id>187</Id>
    <Name>LUIS MELENDEZ RODRIGUEZ</Name>
    <Description>Escuela: 17301</Description>
    <Address>CARR 130 KM 11 HM 3 BO CAMPO ALEGRE  HATILLO PR 00659</Address>
    <Telephone>787-898-6911</Telephone>
    <Latitude>18.406639</Latitude>
    <Longitude>-66.780758</Longitude>
    <Type>School</Type>
  </Location>
  <Location>
    <Id>188</Id>
    <Name>JUAN A CORRETJER</Name>
    <Description>Escuela: 17319</Description>
    <Address>CARR 146 KM 2 BO CORDILLERA  CIALES PR 00638</Address>
    <Telephone>787-871-5405</Telephone>
    <Latitude>18.340712</Latitude>
    <Longitude>-66.47404</Longitude>
    <Type>School</Type>
  </Location>
  <Location>
    <Id>189</Id>
    <Name>SUPERIOR SANTIAGO R PALMER</Name>
    <Description>Escuela: 17327</Description>
    <Address>CARR 186 KM 5 HM 5  CAMUY PR 00627</Address>
    <Telephone>787-898-9299</Telephone>
    <Latitude>18.36789</Latitude>
    <Longitude>-66.83351</Longitude>
    <Type>School</Type>
  </Location>
  <Location>
    <Id>190</Id>
    <Name>BELLAS ARTES</Name>
    <Description>Escuela: 17343</Description>
    <Address>CARR 662 SECT LOS LLANOS BO SANTANA  ARECIBO PR 00612</Address>
    <Telephone>787-881-2882</Telephone>
    <Latitude>18.441796</Latitude>
    <Longitude>-66.671232</Longitude>
    <Type>School</Type>
  </Location>
  <Location>
    <Id>191</Id>
    <Name>PETRA CORRETJER DE O'NEILL</Name>
    <Description>Escuela: 17350</Description>
    <Address>CARR 670 KM 2 HM 7  Manatí PR 00674</Address>
    <Telephone>787-854-6601</Telephone>
    <Latitude>18.424933</Latitude>
    <Longitude>-66.46694</Longitude>
    <Type>School</Type>
  </Location>
  <Location>
    <Id>192</Id>
    <Name>SUP MANUEL RAMOS HERNANDEZ</Name>
    <Description>Escuela: 17368</Description>
    <Address>CARR 2 KM 101 HM 3  QUEBRADILLAS PR 00678</Address>
    <Telephone>787-895-7117</Telephone>
    <Latitude>18.47761</Latitude>
    <Longitude>-66.935743</Longitude>
    <Type>School</Type>
  </Location>
  <Location>
    <Id>193</Id>
    <Name>LUIS F CRESPO</Name>
    <Description>Escuela: 17384</Description>
    <Address>CARR 486 KM 3 BO PUENTE  CAMUY PR 00627</Address>
    <Telephone>787-262-8421</Telephone>
    <Latitude>18.465346</Latitude>
    <Longitude>-66.852071</Longitude>
    <Type>School</Type>
  </Location>
  <Location>
    <Id>194</Id>
    <Name>INSTITUTO TEC RECINTO DE MANATI</Name>
    <Description>Escuela: 17392</Description>
    <Address>CARR 2 KM 4 HM 3  Manatí PR 00674</Address>
    <Telephone>787-854-2050</Telephone>
    <Latitude>0</Latitude>
    <Longitude>0</Longitude>
    <Type>School</Type>
  </Location>
  <Location>
    <Id>195</Id>
    <Name>NUEVA  JUAN S MARCHAND</Name>
    <Description>Escuela: 17418</Description>
    <Address>CARR 685 SECT LOS RABANOS BO BOQUILLAS  Manatí PR 00674</Address>
    <Telephone>787-854-4541</Telephone>
    <Latitude>18.460705</Latitude>
    <Longitude>-66.486791</Longitude>
    <Type>School</Type>
  </Location>
  <Location>
    <Id>196</Id>
    <Name>RICARDO RODRIGUEZ TORRES</Name>
    <Description>Escuela: 17459</Description>
    <Address>CARR 645 KM 12 HM 3 CALLE ANTONIO ALCARZA  FLORIDA PR 00650</Address>
    <Telephone>787-822-1005</Telephone>
    <Latitude>18.363687</Latitude>
    <Longitude>-66.57181</Longitude>
    <Type>School</Type>
  </Location>
  <Location>
    <Id>197</Id>
    <Name>AMALIA LOPEZ DE AVILA (NUEVA)</Name>
    <Description>Escuela: 17467</Description>
    <Address>SECT LA ZARZA BO PUENTE CARR. 119 KM 5.6 INT.  CAMUY PR 00627</Address>
    <Telephone>787-898-4830</Telephone>
    <Latitude>18.467848</Latitude>
    <Longitude>-66.844328</Longitude>
    <Type>School</Type>
  </Location>
  <Location>
    <Id>198</Id>
    <Name>SUPERIOR VOCACIONAL</Name>
    <Description>Escuela: 17558</Description>
    <Address>12 BO SANTANA SECT LOS LLANOS  ARECIBO PR 00612</Address>
    <Telephone>787-880-6696</Telephone>
    <Latitude>18.441749</Latitude>
    <Longitude>-66.671906</Longitude>
    <Type>School</Type>
  </Location>
  <Location>
    <Id>199</Id>
    <Name>NUEVA CEFERINA CORDERO</Name>
    <Description>Escuela: 17657</Description>
    <Address>CALLE EMILIO GONZALEZ INTERIOR (CARR 466) Int. Calle Ranochi # 217 ISABELA PR 00662</Address>
    <Telephone>787-872-0464</Telephone>
    <Latitude>18.504591</Latitude>
    <Longitude>-67.024155</Longitude>
    <Type>School</Type>
  </Location>
  <Location>
    <Id>200</Id>
    <Name>DANIEL VELEZ SOTO</Name>
    <Description>Escuela: 17673</Description>
    <Address>CARR 111 KM 2 HM 0  LARES PR 00669</Address>
    <Telephone>787-897-3060</Telephone>
    <Latitude>18.299561</Latitude>
    <Longitude>-66.882331</Longitude>
    <Type>School</Type>
  </Location>
  <Location>
    <Id>201</Id>
    <Name>DR EFRAIN GONZALEZ TEJERA</Name>
    <Description>Escuela: 17707</Description>
    <Address>CARR 111 KM 16.6 BO ANGELES  UTUADO PR 00611</Address>
    <Telephone>787-894-7245</Telephone>
    <Latitude>18.292517</Latitude>
    <Longitude>-66.803575</Longitude>
    <Type>School</Type>
  </Location>
  <Location>
    <Id>202</Id>
    <Name>SU BARRIO SABANA HOYOS (NUEVA)</Name>
    <Description>Escuela: 17749</Description>
    <Address>CARR 639 KM 3 HM 2 BO. SABANA HOYOS  FLORIDA PR 00688</Address>
    <Telephone>787-815-9087</Telephone>
    <Latitude>18.43295</Latitude>
    <Longitude>-66.43115</Longitude>
    <Type>School</Type>
  </Location>
  <Location>
    <Id>203</Id>
    <Name>LEONARDO VALENTIN TIRADO</Name>
    <Description>Escuela: 17764</Description>
    <Address>CARR 140 CALLE RAMON TORRES #12  FLORIDA PR 00650</Address>
    <Telephone>787-822-2263</Telephone>
    <Latitude>18.372338</Latitude>
    <Longitude>-66.565352</Longitude>
    <Type>School</Type>
  </Location>
  <Location>
    <Id>204</Id>
    <Name>ANIBAL REYES BELEN</Name>
    <Description>Escuela: 17772</Description>
    <Address>CARR 130 K12 4 BO CAMPO ALEGRE  HATILLO PR 00659</Address>
    <Telephone>787-820-4022</Telephone>
    <Latitude>18.407327</Latitude>
    <Longitude>-66.775662</Longitude>
    <Type>School</Type>
  </Location>
  <Location>
    <Id>205</Id>
    <Name>FACTOR 5</Name>
    <Description>Escuela: 17780</Description>
    <Address>1 SECC ANIMAS BO FACTOR  ARECIBO PR 00612</Address>
    <Telephone>787-881-3090</Telephone>
    <Latitude>18.4475</Latitude>
    <Longitude>-66.6479</Longitude>
    <Type>School</Type>
  </Location>
  <Location>
    <Id>206</Id>
    <Name>SUPERIOR VOCACIONAL</Name>
    <Description>Escuela: 17863</Description>
    <Address>CARR 10. KM. 52.5 BO. SALTO ARRIBA  UTUADO PR 00641</Address>
    <Telephone>787-814-0012</Telephone>
    <Latitude>18.267117</Latitude>
    <Longitude>-66.725254</Longitude>
    <Type>School</Type>
  </Location>
  <Location>
    <Id>207</Id>
    <Name>NELIDA MELENDEZ MELENDEZ</Name>
    <Description>Escuela: 17871</Description>
    <Address>CARR 155 INT AVE LUIS M MARIN  OROCOVIS PR 00720</Address>
    <Telephone>787-867-2840</Telephone>
    <Latitude>18.229261</Latitude>
    <Longitude>-66.392207</Longitude>
    <Type>School</Type>
  </Location>
  <Location>
    <Id>208</Id>
    <Name>SU BO POZAS</Name>
    <Description>Escuela: 17889</Description>
    <Address>CARR 149 RAMAL 615 KM 7  CIALES PR 00638</Address>
    <Telephone>787-871-4692</Telephone>
    <Latitude>18.27357</Latitude>
    <Longitude>-66.48252</Longitude>
    <Type>School</Type>
  </Location>
  <Location>
    <Id>209</Id>
    <Name>ELI RAMOS ROSARIO</Name>
    <Description>Escuela: 18176</Description>
    <Address>CARR 140 BO FORTUNA  BARCELONETA PR 00617</Address>
    <Telephone>787-846-3165</Telephone>
    <Latitude>18.447118</Latitude>
    <Longitude>-66.552737</Longitude>
    <Type>School</Type>
  </Location>
  <Location>
    <Id>210</Id>
    <Name>NUEVA INTERMEDIA</Name>
    <Description>Escuela: 18184</Description>
    <Address>CARR 140 BO LLANADAS  BARCELONETA PR 00617</Address>
    <Telephone>787-846-2460</Telephone>
    <Latitude>18.445404</Latitude>
    <Longitude>-66.556982</Longitude>
    <Type>School</Type>
  </Location>
  <Location>
    <Id>211</Id>
    <Name>NUEVA SUPERIOR</Name>
    <Description>Escuela: 18192</Description>
    <Address>CARR 129 SECTOR LAS CUNETAS  INT CARR 490 FRENTE URB VILLA TOLEDO  ARECIBO PR</Address>
    <Telephone>00612</Telephone>
    <Latitude>18.441296</Latitude>
    <Longitude>-66.757946</Longitude>
    <Type>School</Type>
  </Location>
  <Location>
    <Id>212</Id>
    <Name>INTERMEDIA BO PILETAS</Name>
    <Description>Escuela: 18226</Description>
    <Address>CARR ESTATAL # 129  LARES PR 00669</Address>
    <Telephone>787-897-8100</Telephone>
    <Latitude>0</Latitude>
    <Longitude>0</Longitude>
    <Type>School</Type>
  </Location>
  <Location>
    <Id>213</Id>
    <Name>ELEMENTAL BO. MAGUEYES</Name>
    <Description>Escuela: 18234</Description>
    <Address>  BARCELONETA PR 00617</Address>
    <Telephone />
    <Latitude>18.42013</Latitude>
    <Longitude>-66.57663</Longitude>
    <Type>School</Type>
  </Location>
  <Location>
    <Id>214</Id>
    <Name>JOSEFA DEL RIO GUERRERO</Name>
    <Description>Escuela: 18242</Description>
    <Address>  MOROVIS PR </Address>
    <Telephone />
    <Latitude>0</Latitude>
    <Longitude>0</Longitude>
    <Type>School</Type>
  </Location>
  <Location>
    <Id>215</Id>
    <Name>EZEQUIEL RAMOS LA SANTA</Name>
    <Description>Escuela: 20032</Description>
    <Address>CARR 156 KM 52 HM 2 BO CAGUITAS  AGUAS BUENAS PR 00703</Address>
    <Telephone>787-732-3421</Telephone>
    <Latitude>18.255192</Latitude>
    <Longitude>-66.093598</Longitude>
    <Type>School</Type>
  </Location>
  <Location>
    <Id>216</Id>
    <Name>JOSE R GONZALEZ</Name>
    <Description>Escuela: 20040</Description>
    <Address>CARR 156 RAMAL 777 BO CAGUITAS CENTRO  AGUAS BUENAS PR 00703</Address>
    <Telephone>787-732-8204</Telephone>
    <Latitude>18.24143</Latitude>
    <Longitude>-66.099835</Longitude>
    <Type>School</Type>
  </Location>
  <Location>
    <Id>217</Id>
    <Name>JAGUEYES ABAJO</Name>
    <Description>Escuela: 20065</Description>
    <Address>CARR 797 KM 2 HM 4 BO. JAGUEYES ABAJO  AGUAS BUENAS PR 00703</Address>
    <Telephone>787-747-5895</Telephone>
    <Latitude>18.28765</Latitude>
    <Longitude>-66.076119</Longitude>
    <Type>School</Type>
  </Location>
  <Location>
    <Id>218</Id>
    <Name>LUIS SANTAELLA</Name>
    <Description>Escuela: 20073</Description>
    <Address>CARR 173 KM 2 HM 8 BO. JAGUEYES  AGUAS BUENAS PR 00703</Address>
    <Telephone>787-732-5001</Telephone>
    <Latitude>18.269936</Latitude>
    <Longitude>-66.096917</Longitude>
    <Type>School</Type>
  </Location>
  <Location>
    <Id>219</Id>
    <Name>RAMON LUIS RIVERA(JUAN ASENCIO)</Name>
    <Description>Escuela: 20081</Description>
    <Address>CARR 156 RAMAL 790 EXT. 7790  BO. JUAN ASENCIO  AGUAS BUENAS PR</Address>
    <Telephone>00703</Telephone>
    <Latitude>18.255606</Latitude>
    <Longitude>-66.16719</Longitude>
    <Type>School</Type>
  </Location>
  <Location>
    <Id>220</Id>
    <Name>LUIS T BALINAS</Name>
    <Description>Escuela: 20107</Description>
    <Address>CARR. 174 KM 21 HM 5 BO MULA  AGUAS BUENAS PR 00703</Address>
    <Telephone>787-732-8191</Telephone>
    <Latitude>18.257105</Latitude>
    <Longitude>-66.119755</Longitude>
    <Type>School</Type>
  </Location>
  <Location>
    <Id>221</Id>
    <Name>MULITAS ALVELO</Name>
    <Description>Escuela: 20115</Description>
    <Address>CARR 156 RAMAL 790 BO  MULITAS ALVELO  AGUAS BUENAS PR</Address>
    <Telephone>00703</Telephone>
    <Latitude>18.269964</Latitude>
    <Longitude>-66.151019</Longitude>
    <Type>School</Type>
  </Location>
  <Location>
    <Id>222</Id>
    <Name>SU BAYAMONCITO</Name>
    <Description>Escuela: 20172</Description>
    <Address>CARR 156 KM 42 HM 3  BO. BAYAMONCITO  AGUAS BUENAS PR</Address>
    <Telephone>00703</Telephone>
    <Latitude>18.226995</Latitude>
    <Longitude>-66.171085</Longitude>
    <Type>School</Type>
  </Location>
  <Location>
    <Id>223</Id>
    <Name>SU SUMIDERO(CARMEN D. ORTIZ ORTIZ)</Name>
    <Description>Escuela: 20180</Description>
    <Address>CARR 173 KM7 KH0 BO SUMIDERO  AGUAS BUENAS PR 00703</Address>
    <Telephone>787-732-2530</Telephone>
    <Latitude>18.223466</Latitude>
    <Longitude>-66.131546</Longitude>
    <Type>School</Type>
  </Location>
  <Location>
    <Id>224</Id>
    <Name>SU PASTO</Name>
    <Description>Escuela: 20214</Description>
    <Address>CARR 162 KM5 HM 2  BO PASTO  AIBONITO PR</Address>
    <Telephone>00705</Telephone>
    <Latitude>18.116505</Latitude>
    <Longitude>-66.254667</Longitude>
    <Type>School</Type>
  </Location>
  <Location>
    <Id>225</Id>
    <Name>RAFAEL PONT FLORES</Name>
    <Description>Escuela: 20255</Description>
    <Address>CALLE RUIZ RIVERA FINAL SECTOR EL COQUI  AIBONITO PR 00705</Address>
    <Telephone>787-735-1865</Telephone>
    <Latitude>18.134148</Latitude>
    <Longitude>-66.267185</Longitude>
    <Type>School</Type>
  </Location>
  <Location>
    <Id>226</Id>
    <Name>FEDERICO DEGETAU I</Name>
    <Description>Escuela: 20263</Description>
    <Address>CALLE JULIO CINTRON INT. AVE. WHEELER FINAL  AIBONITO PR 00705</Address>
    <Telephone>787-735-2601</Telephone>
    <Latitude>18.14244</Latitude>
    <Longitude>-66.262723</Longitude>
    <Type>School</Type>
  </Location>
  <Location>
    <Id>227</Id>
    <Name>LLANOS ADENTRO</Name>
    <Description>Escuela: 20289</Description>
    <Address>CARR. 725 BO. LLANOS ADENTRO  AIBONITO PR 00705</Address>
    <Telephone>787-735-6396</Telephone>
    <Latitude>18.15437</Latitude>
    <Longitude>-66.279281</Longitude>
    <Type>School</Type>
  </Location>
  <Location>
    <Id>228</Id>
    <Name>LLANOS CARRETERAS(INT-DE IDIOMAS)</Name>
    <Description>Escuela: 20297</Description>
    <Address>CARR 725 KM 2 HM 3 BO. LLANOS  AIBONITO PR 00705</Address>
    <Telephone>787-735-3239</Telephone>
    <Latitude>18.152337</Latitude>
    <Longitude>-66.301204</Longitude>
    <Type>School</Type>
  </Location>
  <Location>
    <Id>229</Id>
    <Name>RABANAL</Name>
    <Description>Escuela: 20305</Description>
    <Address>CARR 722 BO RABANAL  AIBONITO PR 00705</Address>
    <Telephone>787-735-8886</Telephone>
    <Latitude>18.132976</Latitude>
    <Longitude>-66.24904</Longitude>
    <Type>School</Type>
  </Location>
  <Location>
    <Id>230</Id>
    <Name>SU JOSE CELSO BARBOSA</Name>
    <Description>Escuela: 20321</Description>
    <Address>CARR 14 KM 46 HM 5 BO  ASOMANTE  AIBONITO PR</Address>
    <Telephone>00705</Telephone>
    <Latitude>18.126596</Latitude>
    <Longitude>-66.290993</Longitude>
    <Type>School</Type>
  </Location>
  <Location>
    <Id>231</Id>
    <Name>SU CARMEN ZENAIDA VEGA (LA PLATA)</Name>
    <Description>Escuela: 20339</Description>
    <Address>CARR 723 RAMAL 728 KM 1 HM 1 BO. LA PLATA  AIBONITO PR 00705</Address>
    <Telephone>787-735-1277</Telephone>
    <Latitude>18.151729</Latitude>
    <Longitude>-66.232248</Longitude>
    <Type>School</Type>
  </Location>
  <Location>
    <Id>232</Id>
    <Name>SUCESION TORRES</Name>
    <Description>Escuela: 20354</Description>
    <Address>CALLE PALESTINA BDA. SAN LUIS  AIBONITO PR 00705</Address>
    <Telephone>787-735-7736</Telephone>
    <Latitude>18.142026</Latitude>
    <Longitude>-66.274285</Longitude>
    <Type>School</Type>
  </Location>
  <Location>
    <Id>233</Id>
    <Name>DR JOSE N GANDARA</Name>
    <Description>Escuela: 20362</Description>
    <Address>315 CALLE DEGETAU SUR  AIBONITO PR 00705</Address>
    <Telephone>787-735-7290</Telephone>
    <Latitude>18.133476</Latitude>
    <Longitude>-66.26315</Longitude>
    <Type>School</Type>
  </Location>
  <Location>
    <Id>234</Id>
    <Name>CANABON ABAJO</Name>
    <Description>Escuela: 20388</Description>
    <Address>CARR 172 KM 2.6 BO BARANCAS  BARRANQUITAS PR 00794</Address>
    <Telephone>787-857-0982</Telephone>
    <Latitude>18.230803</Latitude>
    <Longitude>-66.338602</Longitude>
    <Type>School</Type>
  </Location>
  <Location>
    <Id>235</Id>
    <Name>EL PORTON</Name>
    <Description>Escuela: 20396</Description>
    <Address>CARR 156 KM 17 HM 7 SECTOR EL PORTON BO HONDURAS  BARRANQUITAS PR 00794</Address>
    <Telephone>787-857-3686</Telephone>
    <Latitude>18.183516</Latitude>
    <Longitude>-66.294449</Longitude>
    <Type>School</Type>
  </Location>
  <Location>
    <Id>236</Id>
    <Name>PETROAMERICA PAGAN</Name>
    <Description>Escuela: 20404</Description>
    <Address>CALLE MUNOZ RIVERA #14  BARRANQUITAS PR 00794</Address>
    <Telephone>787-857-1888</Telephone>
    <Latitude>18.186241</Latitude>
    <Longitude>-66.306033</Longitude>
    <Type>School</Type>
  </Location>
  <Location>
    <Id>237</Id>
    <Name>EL FARALLON</Name>
    <Description>Escuela: 20412</Description>
    <Address>CARR 152 KM 7 HM 6 BO QUEBRADILLAS  BARRANQUITAS PR 00794</Address>
    <Telephone>787-857-2435</Telephone>
    <Latitude>18.238784</Latitude>
    <Longitude>-66.289187</Longitude>
    <Type>School</Type>
  </Location>
  <Location>
    <Id>238</Id>
    <Name>JOSE BERRIOS BERDECIA</Name>
    <Description>Escuela: 20420</Description>
    <Address>CALLE MELITON PERELES  BARRANQUITAS PR 00794</Address>
    <Telephone>787-857-2305</Telephone>
    <Latitude>18.188102</Latitude>
    <Longitude>-66.309097</Longitude>
    <Type>School</Type>
  </Location>
  <Location>
    <Id>239</Id>
    <Name>LA TORRE</Name>
    <Description>Escuela: 20453</Description>
    <Address>CARR 770 KM 2 HM 1 SECTOR LA TORRE BO CANABON  BARRANQUITAS PR 00794</Address>
    <Telephone>787-857-3571</Telephone>
    <Latitude>18.213162</Latitude>
    <Longitude>-66.336741</Longitude>
    <Type>School</Type>
  </Location>
  <Location>
    <Id>240</Id>
    <Name>LA VEGA (STEPHEN S HUSE)</Name>
    <Description>Escuela: 20461</Description>
    <Address>CARR 711 KM O HM 3 BDA LA VEGA  BARRANQUITAS PR 00794</Address>
    <Telephone>787-857-0125</Telephone>
    <Latitude>18.190139</Latitude>
    <Longitude>-66.314989</Longitude>
    <Type>School</Type>
  </Location>
  <Location>
    <Id>241</Id>
    <Name>INOCENCIO CINTRON ZAYAS</Name>
    <Description>Escuela: 20479</Description>
    <Address>CARR 771 KM 9 HM 2 SECTOR MANA ABAJO BO BARRANCA  BARRANQUITAS PR 00974</Address>
    <Telephone>787-857-3581</Telephone>
    <Latitude>18.245549</Latitude>
    <Longitude>-66.310857</Longitude>
    <Type>School</Type>
  </Location>
  <Location>
    <Id>242</Id>
    <Name>PEDRO LABOY</Name>
    <Description>Escuela: 20487</Description>
    <Address>CARR 152 KM 6 HM 5 BO QUEBRADILLAS  BARRANQUITAS PR 00794</Address>
    <Telephone>787-857-2845</Telephone>
    <Latitude>18.228485</Latitude>
    <Longitude>-66.288667</Longitude>
    <Type>School</Type>
  </Location>
  <Location>
    <Id>243</Id>
    <Name>SINFOROSO APONTE</Name>
    <Description>Escuela: 20511</Description>
    <Address>CARR 152 KM 3 HM 9 BO QUEBRADILLAS  BARRANQUITAS PR 00794</Address>
    <Telephone>787-857-4972</Telephone>
    <Latitude>18.211533</Latitude>
    <Longitude>-66.291052</Longitude>
    <Type>School</Type>
  </Location>
  <Location>
    <Id>244</Id>
    <Name>SU HELECHAL</Name>
    <Description>Escuela: 20529</Description>
    <Address>CARR 162 KM 7 HM 4 BO HELECHAL  BARRANQUITAS PR 00794</Address>
    <Telephone>787-857-0732</Telephone>
    <Latitude>18.169074</Latitude>
    <Longitude>-66.314869</Longitude>
    <Type>School</Type>
  </Location>
  <Location>
    <Id>245</Id>
    <Name>SU LA LOMA (ANTONIO VAZQUEZ RAMOS)</Name>
    <Description>Escuela: 20537</Description>
    <Address>CARR 156 KM 20 HM 1 BO QUEBRADA GRANDE  BARRANQUITAS PR 00794</Address>
    <Telephone>787-857-3611</Telephone>
    <Latitude>18.184512</Latitude>
    <Longitude>-66.277769</Longitude>
    <Type>School</Type>
  </Location>
  <Location>
    <Id>246</Id>
    <Name>SU LAJITAS (RAMON T RIVERA)</Name>
    <Description>Escuela: 20545</Description>
    <Address>CARR 771 KM 5 HM 4 BO BARRANCAS  BARRANQUITAS PR 00794</Address>
    <Telephone>787-857-5571</Telephone>
    <Latitude>18.222436</Latitude>
    <Longitude>-66.312846</Longitude>
    <Type>School</Type>
  </Location>
  <Location>
    <Id>247</Id>
    <Name>FEDERICO DEGETAU</Name>
    <Description>Escuela: 20552</Description>
    <Address>CARR 156 KM 11 HM 4 BO PALO HINCADO  BARRANQUITAS PR 00794</Address>
    <Telephone>787-857-0646</Telephone>
    <Latitude>18.190016</Latitude>
    <Longitude>-66.337967</Longitude>
    <Type>School</Type>
  </Location>
  <Location>
    <Id>248</Id>
    <Name>PABLO COLON BERDECIA</Name>
    <Description>Escuela: 20560</Description>
    <Address>CALLE BARCELO FINAL SECTOR NUEVO  BARRANQUITAS PR 00794</Address>
    <Telephone>787-857-2897</Telephone>
    <Latitude>0</Latitude>
    <Longitude>0</Longitude>
    <Type>School</Type>
  </Location>
  <Location>
    <Id>249</Id>
    <Name>ABELARDO DIAZ MORALES</Name>
    <Description>Escuela: 20578</Description>
    <Address>URB. SANTA ELVIRA CALLE SANTA GERTRUDIS  GURABO PR 00725</Address>
    <Telephone>787-743-9056</Telephone>
    <Latitude>18.236146</Latitude>
    <Longitude>-66.013835</Longitude>
    <Type>School</Type>
  </Location>
  <Location>
    <Id>250</Id>
    <Name>NICOLAS AGUAYO ALDEA</Name>
    <Description>Escuela: 20594</Description>
    <Address>13 CALLE RAFAEL CORDERO URB. BORINQUEN  CAGUAS PR 00726</Address>
    <Telephone>787-743-5065</Telephone>
    <Latitude>18.232495</Latitude>
    <Longitude>-66.03105</Longitude>
    <Type>School</Type>
  </Location>
  <Location>
    <Id>251</Id>
    <Name>AMALIA H MANGUAL</Name>
    <Description>Escuela: 20602</Description>
    <Address>CARR 175 KM 2 HM 2 BO SAN ANTONIO  CAGUAS PR 00725</Address>
    <Telephone>787-747-1311</Telephone>
    <Latitude>18.226791</Latitude>
    <Longitude>-66.037415</Longitude>
    <Type>School</Type>
  </Location>
  <Location>
    <Id>252</Id>
    <Name>ANDRES GONZALEZ</Name>
    <Description>Escuela: 20610</Description>
    <Address>CARR 784 KM 4 HM 3 BO. CANABONCITO  CAGUAS PR 00725</Address>
    <Telephone>787-747-7282</Telephone>
    <Latitude>18.211633</Latitude>
    <Longitude>-66.077274</Longitude>
    <Type>School</Type>
  </Location>
  <Location>
    <Id>253</Id>
    <Name>CORNELIO AYALA FONSECA</Name>
    <Description>Escuela: 20644</Description>
    <Address>CARR 763 KM 3 HM 4  BO. BORINQUEN ATRAVESADA  CAGUAS PR</Address>
    <Telephone>00725</Telephone>
    <Latitude>18.158308</Latitude>
    <Longitude>-66.052804</Longitude>
    <Type>School</Type>
  </Location>
  <Location>
    <Id>254</Id>
    <Name>MARIA MONTANEZ GOMEZ</Name>
    <Description>Escuela: 20651</Description>
    <Address>CALLE CECILIANA PARCELAS LAS CAROLINAS  AGUAS BUENAS PR 00725</Address>
    <Telephone>787-704-3018</Telephone>
    <Latitude>18.254241</Latitude>
    <Longitude>-66.067787</Longitude>
    <Type>School</Type>
  </Location>
  <Location>
    <Id>255</Id>
    <Name>PEDRO MILLAN RIVERA</Name>
    <Description>Escuela: 20669</Description>
    <Address>Y 6 CALLE 7 URB RES BAIROA  CAGUAS PR 00725</Address>
    <Telephone>787-744-4777</Telephone>
    <Latitude>18.257273</Latitude>
    <Longitude>-66.040554</Longitude>
    <Type>School</Type>
  </Location>
  <Location>
    <Id>256</Id>
    <Name>BENITA GONZALEZ QUINONES</Name>
    <Description>Escuela: 20685</Description>
    <Address>URB. JOSE DELGADO CALLE 5  CAGUAS PR 00725</Address>
    <Telephone>787-743-4467</Telephone>
    <Latitude>18.235545</Latitude>
    <Longitude>-66.02191</Longitude>
    <Type>School</Type>
  </Location>
  <Location>
    <Id>257</Id>
    <Name>OSCAL L BUNKER</Name>
    <Description>Escuela: 20701</Description>
    <Address>CARR 784 KM 0 HM 2 BO CANABONCITO SECTOR GARCIA  CAGUAS PR 00725</Address>
    <Telephone>787-744-7868</Telephone>
    <Latitude>18.226588</Latitude>
    <Longitude>-66.055735</Longitude>
    <Type>School</Type>
  </Location>
  <Location>
    <Id>258</Id>
    <Name>JOSE MERCADO</Name>
    <Description>Escuela: 20719</Description>
    <Address>URB. JOSE MERCADO CALLE WOODROW WILSON  CAGUAS PR 00725</Address>
    <Telephone>787-744-6447</Telephone>
    <Latitude>18.218611</Latitude>
    <Longitude>-66.015732</Longitude>
    <Type>School</Type>
  </Location>
  <Location>
    <Id>259</Id>
    <Name>CIPRIANO MANRIQUE</Name>
    <Description>Escuela: 20727</Description>
    <Address>CARR 765 KM3 HM 1 BO. BORINQUEN  PARCELAS VIEJAS  CAGUAS PR</Address>
    <Telephone>00725</Telephone>
    <Latitude>18.174794</Latitude>
    <Longitude>-66.041614</Longitude>
    <Type>School</Type>
  </Location>
  <Location>
    <Id>260</Id>
    <Name>DIEGO VAZQUEZ</Name>
    <Description>Escuela: 20735</Description>
    <Address>CALLE D FINAL BDA. MORALES  CAGUAS PR 00725</Address>
    <Telephone>787-743-3695</Telephone>
    <Latitude>18.23283</Latitude>
    <Longitude>-66.040718</Longitude>
    <Type>School</Type>
  </Location>
  <Location>
    <Id>261</Id>
    <Name>ANTONIO S PEDREIRA (PRE-TEC)</Name>
    <Description>Escuela: 20776</Description>
    <Address>CALLE 4 URB. VILLA DEL CARMEN  CAGUAS PR 00725</Address>
    <Telephone>787-743-4868</Telephone>
    <Latitude>18.214797</Latitude>
    <Longitude>-66.041212</Longitude>
    <Type>School</Type>
  </Location>
  <Location>
    <Id>262</Id>
    <Name>JESUS T PINERO</Name>
    <Description>Escuela: 20784</Description>
    <Address>CARR 795 KM 0 HM 2 BO. LA BARRA  CAGUAS PR 00725</Address>
    <Telephone>787-747-1992</Telephone>
    <Latitude>18.282308</Latitude>
    <Longitude>-66.057897</Longitude>
    <Type>School</Type>
  </Location>
  <Location>
    <Id>263</Id>
    <Name>JOSE DE DIEGO</Name>
    <Description>Escuela: 20792</Description>
    <Address>161 CALLE RAFAEL CORDERO SECTOR SAVARONA  CAGUAS PR 00725</Address>
    <Telephone>787-743-5830</Telephone>
    <Latitude>18.229583</Latitude>
    <Longitude>-66.032782</Longitude>
    <Type>School</Type>
  </Location>
  <Location>
    <Id>264</Id>
    <Name>JOSE GAUTIER BENITEZ</Name>
    <Description>Escuela: 20800</Description>
    <Address>CALLE GAUTIER BENITEZ  ESQ. CRISTOBAL COLON  CAGUAS PR</Address>
    <Telephone>00725</Telephone>
    <Latitude>18.227665</Latitude>
    <Longitude>-66.035849</Longitude>
    <Type>School</Type>
  </Location>
  <Location>
    <Id>265</Id>
    <Name>DR JUAN JOSE OSUNA</Name>
    <Description>Escuela: 20818</Description>
    <Address>CARR 1 KM 38 HM 5  BO. TURABO  SECTOR VILLA ESPERA  CAGUAS</Address>
    <Telephone>PR</Telephone>
    <Latitude>18.20382</Latitude>
    <Longitude>-66.052555</Longitude>
    <Type>School</Type>
  </Location>
  <Location>
    <Id>266</Id>
    <Name>JUAN NAVARRO</Name>
    <Description>Escuela: 20826</Description>
    <Address>CARR 172 KM 6 HM 2 SECTOR LA SIERRA BO CANABONCITO  CIDRA PR</Address>
    <Telephone>00725</Telephone>
    <Latitude>18.20489</Latitude>
    <Longitude>-66.10871</Longitude>
    <Type>School</Type>
  </Location>
  <Location>
    <Id>267</Id>
    <Name>LUIS MUNOZ RIVERA</Name>
    <Description>Escuela: 20834</Description>
    <Address>65 FINAL CALLE MUNOZ RIVERA  CAGUAS PR 00725</Address>
    <Telephone>787-743-2303</Telephone>
    <Latitude>18.23153</Latitude>
    <Longitude>-66.03819</Longitude>
    <Type>School</Type>
  </Location>
  <Location>
    <Id>268</Id>
    <Name>LUIS MUNOZ GRILLO</Name>
    <Description>Escuela: 20891</Description>
    <Address>CARR 1 KM 47 BO. BEATRIZ  CIDRA PR 00725</Address>
    <Telephone>787-747-5566</Telephone>
    <Latitude>18.176161</Latitude>
    <Longitude>-66.089608</Longitude>
    <Type>School</Type>
  </Location>
  <Location>
    <Id>269</Id>
    <Name>LUIS RAMOS GONZALEZ</Name>
    <Description>Escuela: 20909</Description>
    <Address>AVE GAUTIER BENITEZ FINAL  CAGUAS PR 00725</Address>
    <Telephone>787-743-9194</Telephone>
    <Latitude>18.226955</Latitude>
    <Longitude>-66.036365</Longitude>
    <Type>School</Type>
  </Location>
  <Location>
    <Id>270</Id>
    <Name>MIGUEL F CHIQUES</Name>
    <Description>Escuela: 20933</Description>
    <Address>13 CALLE RAFAEL CORDERO  CAGUAS PR 00725</Address>
    <Telephone>787-743-2460</Telephone>
    <Latitude>18.231424</Latitude>
    <Longitude>-66.031635</Longitude>
    <Type>School</Type>
  </Location>
  <Location>
    <Id>271</Id>
    <Name>PAULA MOJICA</Name>
    <Description>Escuela: 20941</Description>
    <Address>CALLE ROBLE  URB. VILLA TURABO  CAGUAS PR</Address>
    <Telephone>00725</Telephone>
    <Latitude>18.220551</Latitude>
    <Longitude>-66.04353</Longitude>
    <Type>School</Type>
  </Location>
  <Location>
    <Id>272</Id>
    <Name>RAMON BRUGUERAS</Name>
    <Description>Escuela: 20974</Description>
    <Address>CALLE VIRTUD BDA. VILLA ESPERANZA  CAGUAS PR 00725</Address>
    <Telephone>787-744-5114</Telephone>
    <Latitude>18.202705</Latitude>
    <Longitude>-66.05127</Longitude>
    <Type>School</Type>
  </Location>
  <Location>
    <Id>273</Id>
    <Name>REPUBLICA DE COSTA RICA</Name>
    <Description>Escuela: 20982</Description>
    <Address>390CALLE HECTOR R BUNKER  CAGUAS PR 00725</Address>
    <Telephone>787-746-7565</Telephone>
    <Latitude>18.234949</Latitude>
    <Longitude>-66.028772</Longitude>
    <Type>School</Type>
  </Location>
  <Location>
    <Id>274</Id>
    <Name>ROSA C BENITEZ</Name>
    <Description>Escuela: 20990</Description>
    <Address>URB. VILLA DEL REY CALLE WINDSOR 1RA. SECCION  CAGUAS PR 00725</Address>
    <Telephone>787-743-8446</Telephone>
    <Latitude>18.213572</Latitude>
    <Longitude>-66.044224</Longitude>
    <Type>School</Type>
  </Location>
  <Location>
    <Id>275</Id>
    <Name>FRANCISCO VALDES</Name>
    <Description>Escuela: 21006</Description>
    <Address>CARR 798 KM 12 HM 5 BO. RIO CANAS  CAGUAS PR 00725</Address>
    <Telephone>787-747-9464</Telephone>
    <Latitude>18.291889</Latitude>
    <Longitude>-66.05016</Longitude>
    <Type>School</Type>
  </Location>
  <Location>
    <Id>276</Id>
    <Name>SU MERCEDES PALMA</Name>
    <Description>Escuela: 21014</Description>
    <Address>CARR 765 KM 8 HM3 BO SAN SALVADOR SECTOR LA PLAZA  CAGUAS PR 00725</Address>
    <Telephone>787-747-4025</Telephone>
    <Latitude>18.138835</Latitude>
    <Longitude>-66.039094</Longitude>
    <Type>School</Type>
  </Location>
  <Location>
    <Id>277</Id>
    <Name>SU SANDALIO MARCANO</Name>
    <Description>Escuela: 21022</Description>
    <Address>CARR 788 KM 6 HM 6 BO TOMAS DE CASTRO I  CAGUAS PR 00725</Address>
    <Telephone>787-747-3110</Telephone>
    <Latitude>18.350252</Latitude>
    <Longitude>-65.650793</Longitude>
    <Type>School</Type>
  </Location>
  <Location>
    <Id>278</Id>
    <Name>SALVADOR RODRIGUEZ</Name>
    <Description>Escuela: 21030</Description>
    <Address>CARR 7754 KM 4 HM 4 BO CANABONCITO ARRIBA  CIDRA PR 00725</Address>
    <Telephone>787-747-6900</Telephone>
    <Latitude>18.20866</Latitude>
    <Longitude>-66.08142</Longitude>
    <Type>School</Type>
  </Location>
  <Location>
    <Id>279</Id>
    <Name>MANUELA TORO MORICE</Name>
    <Description>Escuela: 21055</Description>
    <Address>URB. CAGUAS NORTE 5 CALLE ESTANBUR  CAGUAS PR 00725</Address>
    <Telephone>787-744-2111</Telephone>
    <Latitude>18.241333</Latitude>
    <Longitude>-66.024352</Longitude>
    <Type>School</Type>
  </Location>
  <Location>
    <Id>280</Id>
    <Name>PEPITA GARRIGA</Name>
    <Description>Escuela: 21063</Description>
    <Address>CALLE ESMERALDA #1 ESQ CORAL  CAGUAS PR 00725</Address>
    <Telephone>787-743-3633</Telephone>
    <Latitude>18.246232</Latitude>
    <Longitude>-66.032611</Longitude>
    <Type>School</Type>
  </Location>
  <Location>
    <Id>281</Id>
    <Name>JOHN F KENNEDY</Name>
    <Description>Escuela: 21071</Description>
    <Address>CALLE KINGSTON URB VILLA DEL REY  CAGUAS PR 00725</Address>
    <Telephone>787-746-1735</Telephone>
    <Latitude>18.231882</Latitude>
    <Longitude>-66.030549</Longitude>
    <Type>School</Type>
  </Location>
  <Location>
    <Id>282</Id>
    <Name>BENIGNO FERNANDEZ GARCIA</Name>
    <Description>Escuela: 21089</Description>
    <Address>CALLE BARBOSA FINAL  CAYEY PR 00736</Address>
    <Telephone>787-738-2626</Telephone>
    <Latitude>18.114892</Latitude>
    <Longitude>-66.167731</Longitude>
    <Type>School</Type>
  </Location>
  <Location>
    <Id>283</Id>
    <Name>BENIGNO CARRION</Name>
    <Description>Escuela: 21097</Description>
    <Address>CALLE LUIS BARRERAS FINAL  CAYEY PR 00736</Address>
    <Telephone>787-738-3087</Telephone>
    <Latitude>0</Latitude>
    <Longitude>0</Longitude>
    <Type>School</Type>
  </Location>
  <Location>
    <Id>284</Id>
    <Name>BENJAMIN HARRISON</Name>
    <Description>Escuela: 21105</Description>
    <Address>249 AVE JOSE DE DIEGO  CAYEY PR 00736</Address>
    <Telephone>787-738-2616</Telephone>
    <Latitude>18.113655</Latitude>
    <Longitude>-66.168888</Longitude>
    <Type>School</Type>
  </Location>
  <Location>
    <Id>285</Id>
    <Name>FELIX LUCAS BENET</Name>
    <Description>Escuela: 21113</Description>
    <Address>JOSE DE DIEGO FINAL BO BUENAS VISTA  CAYEY PR 00736</Address>
    <Telephone>787-738-3830</Telephone>
    <Latitude>18.119756</Latitude>
    <Longitude>-66.178148</Longitude>
    <Type>School</Type>
  </Location>
  <Location>
    <Id>286</Id>
    <Name>EMERITA LEON ELEMENTAL</Name>
    <Description>Escuela: 21188</Description>
    <Address>URB VILLA VERDE 118 CALLE LUIS MORALES  CAYEY PR 00736</Address>
    <Telephone>787-263-4070</Telephone>
    <Latitude>18.108148</Latitude>
    <Longitude>-66.162193</Longitude>
    <Type>School</Type>
  </Location>
  <Location>
    <Id>287</Id>
    <Name>EMERITA LEON INTERMEDIA</Name>
    <Description>Escuela: 21196</Description>
    <Address>URB MINIMA DETRAS RES. LUIS MUNOZ MORALES  CAYEY PR 00736</Address>
    <Telephone>787-738-2440</Telephone>
    <Latitude>18.109156</Latitude>
    <Longitude>-66.163002</Longitude>
    <Type>School</Type>
  </Location>
  <Location>
    <Id>288</Id>
    <Name>SU GERARDO SELLES SOLA</Name>
    <Description>Escuela: 21212</Description>
    <Address>CARR 184 KM 31 HM 3 BO GUAVATE  CAYEY PR 00736</Address>
    <Telephone>787-263-0490</Telephone>
    <Latitude>18.141137</Latitude>
    <Longitude>-66.091859</Longitude>
    <Type>School</Type>
  </Location>
  <Location>
    <Id>289</Id>
    <Name>LUIS MUNOZ RIVERA</Name>
    <Description>Escuela: 21279</Description>
    <Address>CALLE LUIS MUNOZ RIVERA SUR  CAYEY PR 00736</Address>
    <Telephone>787-738-2621</Telephone>
    <Latitude>18.1086</Latitude>
    <Longitude>-66.167364</Longitude>
    <Type>School</Type>
  </Location>
  <Location>
    <Id>290</Id>
    <Name>JULIO VIZCARRONDO YCORONADO</Name>
    <Description>Escuela: 21287</Description>
    <Address>CARR 14 KM 63 BO MATON ABAJO  CAYEY PR 00736</Address>
    <Telephone>787-738-7111</Telephone>
    <Latitude>18.140844</Latitude>
    <Longitude>-66.213484</Longitude>
    <Type>School</Type>
  </Location>
  <Location>
    <Id>291</Id>
    <Name>JOSE GUALBERTO PADILLA</Name>
    <Description>Escuela: 21303</Description>
    <Address>CARR 1 KM 6 HM 8 BO PASTO VIEJO  CAYEY PR 00736</Address>
    <Telephone>787-738-7847</Telephone>
    <Latitude>18.094723</Latitude>
    <Longitude>-66.213669</Longitude>
    <Type>School</Type>
  </Location>
  <Location>
    <Id>292</Id>
    <Name>AGUSTIN FERNANDEZ COLON</Name>
    <Description>Escuela: 21337</Description>
    <Address>CARR 14 AVE ANTONIO R BARCELO BO MONTELLANO  CAYEY PR 00736</Address>
    <Telephone>787-738-5761</Telephone>
    <Latitude>18.122818</Latitude>
    <Longitude>-66.142695</Longitude>
    <Type>School</Type>
  </Location>
  <Location>
    <Id>293</Id>
    <Name>SU REXFORD GUY TUGWELL</Name>
    <Description>Escuela: 21345</Description>
    <Address>CARR 15 INT 7737 BO SUMIDO  CAYEY PR 00736</Address>
    <Telephone>787-738-5482</Telephone>
    <Latitude>18.085435</Latitude>
    <Longitude>-66.158716</Longitude>
    <Type>School</Type>
  </Location>
  <Location>
    <Id>294</Id>
    <Name>SU EUGENIO MARIA DE HOSTOS</Name>
    <Description>Escuela: 21352</Description>
    <Address>CARR 14 KM 65 HM 3 BO TOITA  CAYEY PR 00736</Address>
    <Telephone>787-738-5866</Telephone>
    <Latitude>18.135262</Latitude>
    <Longitude>-66.195785</Longitude>
    <Type>School</Type>
  </Location>
  <Location>
    <Id>295</Id>
    <Name>RAMON FRADE LEON</Name>
    <Description>Escuela: 21360</Description>
    <Address>CALLE FLOR RODRIGUEZ BDA SAN THOMAS  CAYEY PR 00736</Address>
    <Telephone>787-738-2847</Telephone>
    <Latitude>18.104268</Latitude>
    <Longitude>-66.167045</Longitude>
    <Type>School</Type>
  </Location>
  <Location>
    <Id>296</Id>
    <Name>CONSUELO LOPEZ BENET</Name>
    <Description>Escuela: 21386</Description>
    <Address>CALLE GREGORIO RIOS  BO VEGAS  CAYEY PR</Address>
    <Telephone>00736</Telephone>
    <Latitude>18.12891</Latitude>
    <Longitude>-66.11004</Longitude>
    <Type>School</Type>
  </Location>
  <Location>
    <Id>297</Id>
    <Name>SALVADOR BRAU PRE VOCACIONAL</Name>
    <Description>Escuela: 21394</Description>
    <Address>AVE LUIS MUNOZ MARIN  CAYEY PR 00736</Address>
    <Telephone>787-263-5044</Telephone>
    <Latitude>18.11098</Latitude>
    <Longitude>-66.160151</Longitude>
    <Type>School</Type>
  </Location>
  <Location>
    <Id>298</Id>
    <Name>SU PEDRO DIAZ FONSECA</Name>
    <Description>Escuela: 21410</Description>
    <Address>CARR 1 KM 49 HM 6 BO BEATRIZ  CIDRA PR 00739</Address>
    <Telephone>787-738-3584</Telephone>
    <Latitude>18.156901</Latitude>
    <Longitude>-66.098095</Longitude>
    <Type>School</Type>
  </Location>
  <Location>
    <Id>299</Id>
    <Name>CLEMENCIA MELENDEZ</Name>
    <Description>Escuela: 21493</Description>
    <Address>CARR 173 KM 7 HM 9 BO RABANAL  CIDRA PR 00739</Address>
    <Telephone>787-739-8913</Telephone>
    <Latitude>18.162271</Latitude>
    <Longitude>-66.191833</Longitude>
    <Type>School</Type>
  </Location>
  <Location>
    <Id>300</Id>
    <Name>CIPRIAN CASTRODAD</Name>
    <Description>Escuela: 21501</Description>
    <Address>CARR. 172 KM. 9 BO RIO ABAJO  CIDRA PR 00739</Address>
    <Telephone>787-739-3744</Telephone>
    <Latitude>18.185471</Latitude>
